name,state,lat,lon,pop,feature
Bay Minette,AL,30.88296,-87.77305,9118,PPLA2
Edna,TX,28.97859,-96.64609,5792,PPLA2
Bayou La Batre,AL,30.40352,-88.24852,2621,PPL
Henderson,TX,32.15322,-94.79938,13529,PPLA2
Natalia,TX,29.18968,-98.86253,1490,PPL
Rankin,TX,32.2057,-96.70666,718,PPL
Bear Creek,AL,34.27482,-87.70058,1047,PPL
South Toledo Bend,TX,31.15324,-93.60462,524,PPL
Fort Hunt,VA,38.73289,-77.05803,16045,PPL
Nelsonia,VA,37.81985,-75.58715,523,PPL
Yorktown,VA,37.23858,-76.50894,195,PPLA2
Brighton,AL,33.43428,-86.94721,2862,PPL
Bellamy,AL,32.44903,-88.13363,543,PPL
Bellefontaine,AL,30.49353,-88.10361,608,PPL
Plateau,AL,30.73562,-88.06063,2000,PPL
East Camden,AR,33.60789,-92.74016,862,PPL
Wilton,AL,33.07873,-86.88166,687,PPL
Guy,AR,35.32536,-92.33432,718,PPL
Ocean View,DE,38.54511,-75.08907,2035,PPL
Berry,AL,33.65983,-87.60001,1113,PPL
Matlacha,FL,26.6298,-82.07092,677,PPL
Trinity,FL,28.18085,-82.68177,10907,PPL
Villas,FL,26.55035,-81.8687,11569,PPL
Bessemer,AL,33.40178,-86.95444,26730,PPL
Lenox,GA,31.27158,-83.46488,852,PPL
Patterson,GA,31.38744,-82.14012,751,PPL
Aurora,IN,39.057,-84.90134,3701,PPL
New Pekin,IN,38.50506,-86.01692,1378,PPL
Stockton,KS,39.43807,-99.2651,1322,PPLA2
Paducah,KY,37.08339,-88.60005,24864,PPLA2
Monticello,LA,32.59653,-91.394,4718,PPL
Red Chute,LA,32.55598,-93.61323,6261,PPL
Jessup,MD,39.14927,-76.77525,7137,PPL
McCoole,MD,39.44648,-78.97225,511,PPL
Faith,NC,35.58708,-80.46284,811,PPL
Polkville,NC,35.41763,-81.64287,536,PPL
Vass,NC,35.25627,-79.28225,749,PPL
Birmingham,AL,33.52066,-86.80249,196357,PPLA2
Delhi Hills,OH,39.09284,-84.61272,5259,PPL
Racine,OH,38.97119,-81.9143,662,PPL
Turpin Hills,OH,39.11006,-84.37994,5099,PPL
Cole,OK,35.10229,-97.57281,570,PPL
Lugoff,SC,34.22737,-80.68925,7434,PPL
Cordova,TN,35.15565,-89.7762,68779,PPL
Blountsville,AL,34.08149,-86.5911,1697,PPL
Blue Ridge,AL,32.49264,-86.19052,1341,PPL
Buda,TX,30.08521,-97.84028,13705,PPL
Beasley,TX,29.49746,-95.91801,665,PPL
Boaz,AL,34.20065,-86.16637,9688,PPL
Branchville,AL,33.7,-86.4,973,PPL
Brantley,AL,31.58238,-86.25718,805,PPL
Brantleyville,AL,33.21595,-86.87499,884,PPL
Brent,AL,32.93735,-87.16472,4898,PPL
Brewton,AL,31.10518,-87.07219,5434,PPLA2
Bridgeport,AL,34.94758,-85.71442,2355,PPL
Brilliant,AL,34.02538,-87.75836,884,PPL
Brook Highland,AL,33.43566,-86.67388,6746,PPL
Brookside,AL,33.63788,-86.91666,1329,PPL
Brookwood,AL,33.25567,-87.32083,1822,PPL
Brundidge,AL,31.72016,-85.81606,1989,PPL
Butler,AL,32.08959,-88.22197,1798,PPLA2
Bynum,AL,33.61316,-85.96108,1795,PPL
Cahaba Heights,AL,33.464,-86.73193,5287,PPL
Calera,AL,33.1029,-86.7536,13213,PPL
Camden,AL,31.99098,-87.29055,1930,PPLA2
Camp Hill,AL,32.80041,-85.65357,981,PPL
Carbon Hill,AL,33.89177,-87.52612,1975,PPL
Carrollton,AL,33.26169,-88.09503,988,PPLA2
Castleberry,AL,31.29906,-87.02247,565,PPL
Cedar Bluff,AL,34.22009,-85.60774,1802,PPL
Center Point,AL,33.64566,-86.6836,16655,PPL
Centre,AL,34.15204,-85.67885,3570,PPLA2
Centreville,AL,32.9462,-87.11669,2704,PPLA2
Chalkville,AL,33.65316,-86.64777,3901,PPL
Chatom,AL,31.46517,-88.25446,1237,PPLA2
Chelsea,AL,33.34011,-86.63026,12059,PPL
Cherokee,AL,34.75703,-87.97281,1014,PPL
Chickasaw,AL,30.7638,-88.07472,5954,PPL
Childersburg,AL,33.27817,-86.35498,5046,PPL
Choccolocco,AL,33.65927,-85.70357,2804,PPL
Citronelle,AL,31.09073,-88.22806,3887,PPL
Clanton,AL,32.83874,-86.62943,8844,PPLA2
Susan Moore,AL,34.08371,-86.42832,770,PPL
Clay,AL,33.7026,-86.59971,9655,PPL
Clayhatchee,AL,31.23573,-85.72271,577,PPL
Clayton,AL,31.87822,-85.44966,2925,PPLA2
Cleveland,AL,33.99093,-86.57749,1315,PPL
Clio,AL,31.70878,-85.6105,1529,PPL
Coaling,AL,33.15901,-87.34083,1648,PPL
Coker,AL,33.24595,-87.68779,978,PPL
Collinsville,AL,34.26398,-85.86053,1973,PPL
Columbia,AL,31.29271,-85.11267,737,PPL
Columbiana,AL,33.17817,-86.60721,4168,PPLA2
Concord,AL,33.46761,-87.03111,1837,PPL
Coosada,AL,32.49791,-86.33136,1240,PPL
Cordova,AL,33.75983,-87.18333,2028,PPL
Cottonwood,AL,31.04879,-85.30493,1264,PPL
Courtland,AL,34.66898,-87.30946,597,PPL
Cowarts,AL,31.20018,-85.30465,1988,PPL
Creola,AL,30.89185,-88.03972,1955,PPL
Crossville,AL,34.28759,-85.99414,1848,PPL
Cullman,AL,34.17482,-86.84361,15350,PPLA2
Dadeville,AL,32.83124,-85.76357,3150,PPLA2
Daleville,AL,31.31017,-85.71299,5141,PPL
Danville,AL,34.41454,-87.08751,6242,PPL
Daphne,AL,30.60353,-87.9036,24896,PPL
Dauphin Island,AL,30.25548,-88.10972,1251,PPL
Deatsville,AL,32.60819,-86.39581,1157,PPL
Decatur,AL,34.60593,-86.98334,55437,PPLA2
Demopolis,AL,32.51764,-87.8364,7148,PPL
Dodge City,AL,34.04066,-86.88583,603,PPL
Dora,AL,33.72872,-87.09028,1960,PPL
Dothan,AL,31.22323,-85.39049,68567,PPLA2
Double Springs,AL,34.14637,-87.40247,1056,PPLA2
Douglas,AL,34.17371,-86.32359,758,PPL
Dunnavant,AL,33.49344,-86.54415,981,PPL
East Brewton,AL,31.09323,-87.06275,2419,PPL
East Florence,AL,34.80953,-87.64947,35733,PPL
Eclectic,AL,32.63541,-86.03441,1029,PPL
Edgewater,AL,33.52677,-86.95777,883,PPL
Egypt,AL,34.07371,-86.15581,932,PPL
Elberta,AL,30.41436,-87.59776,1652,PPL
Enterprise,AL,31.31517,-85.85522,27978,PPL
Eufaula,AL,31.89127,-85.14549,12596,PPL
Eutaw,AL,32.84059,-87.88762,2766,PPLA2
Eva,AL,34.33232,-86.75889,511,PPL
Evergreen,AL,31.4335,-86.95692,3774,PPLA2
Excel,AL,31.42794,-87.34137,672,PPL
Fairfield,AL,33.48594,-86.91194,10907,PPL
Fairhope,AL,30.52297,-87.90333,18730,PPL
Falkville,AL,34.36843,-86.90862,1268,PPL
Fayette,AL,33.68455,-87.83085,4490,PPLA2
Fayetteville,AL,33.14567,-86.40581,1284,PPL
Flint City,AL,34.52315,-86.97029,1033,PPL
Florala,AL,31.00518,-86.328,1973,PPL
Florence,AL,34.79981,-87.67725,40026,PPLA2
Flomaton,AL,31.00018,-87.26081,1411,PPL
Foley,AL,30.40659,-87.6836,17218,PPL
Forestdale,AL,33.57011,-86.89638,10162,PPL
Forkland,AL,32.64819,-87.88335,601,PPL
Fort Deposit,AL,31.98459,-86.57859,1240,PPL
Fort Payne,AL,34.44425,-85.71969,14150,PPLA2
Frisco City,AL,31.4335,-87.40138,1223,PPL
Fultondale,AL,33.60483,-86.79388,9048,PPL
Fyffe,AL,34.44676,-85.90414,1023,PPL
Gadsden,AL,34.01434,-86.00639,36084,PPLA2
Gallant,AL,33.99871,-86.24526,855,PPL
Gardendale,AL,33.6601,-86.81277,13711,PPL
Geneva,AL,31.03296,-85.86382,4460,PPLA2
Georgiana,AL,31.6371,-86.74192,1667,PPL
Geraldine,AL,34.35148,-86.00081,902,PPL
Glencoe,AL,33.95704,-85.93247,5153,PPL
Good Hope,AL,34.11593,-86.86361,2281,PPL
Goodwater,AL,33.06567,-86.0533,1343,PPL
Gordo,AL,33.32012,-87.9028,1687,PPL
Grand Bay,AL,30.47631,-88.34223,3672,PPL
Grant,AL,34.5287,-86.25332,903,PPL
Grayson Valley,AL,33.64816,-86.63943,5736,PPL
Graysville,AL,33.62066,-86.97138,2096,PPL
Greensboro,AL,32.70415,-87.5955,2387,PPLA2
Greenville,AL,31.8296,-86.61775,7845,PPLA2
Grimes,AL,31.30462,-85.44799,546,PPL
Grove Hill,AL,31.70877,-87.77722,1494,PPLA2
Guin,AL,33.96566,-87.91475,2322,PPL
Gulf Shores,AL,30.24604,-87.70082,11131,PPL
Guntersville,AL,34.35823,-86.29446,8385,PPLA2
Gurley,AL,33.77649,-86.63777,886,PPL
Gurley,AL,34.70176,-86.37582,788,PPL
Hackleburg,AL,34.27732,-87.82864,1486,PPL
Haleyville,AL,34.22649,-87.62141,4088,PPL
Hamilton,AL,34.14232,-87.98864,6772,PPLA2
Hanceville,AL,34.06065,-86.7675,3281,PPL
Harpersville,AL,33.344,-86.43804,1681,PPL
Hartford,AL,31.1024,-85.69688,2647,PPL
Hartselle,AL,34.44343,-86.93528,14493,PPL
Harvest,AL,34.85564,-86.75083,5281,PPL
Hayden,AL,33.8926,-86.75777,1341,PPL
Hayneville,AL,32.18403,-86.58025,862,PPLA2
Hazel Green,AL,34.93231,-86.57194,3630,PPL
Headland,AL,31.35128,-85.34216,4736,PPL
Heflin,AL,33.64899,-85.58746,3499,PPLA2
Helena,AL,33.29622,-86.8436,18264,PPL
Henagar,AL,34.63508,-85.76719,2346,PPL
Hillsboro,AL,34.63926,-87.19168,519,PPL
Hissop,AL,32.89235,-86.1533,658,PPL
Hobson City,AL,33.62149,-85.84413,768,PPL
Hokes Bluff,AL,33.99815,-85.86636,4301,PPL
Hollins,AL,33.11762,-86.14442,545,PPL
Hollis Crossroads,AL,33.52372,-85.63718,608,PPL
Holly Pond,AL,34.17426,-86.61638,812,PPL
Hollywood,AL,34.72425,-85.97248,974,PPL
Hollywood,AL,33.47288,-86.78304,930,PPL
Holt,AL,33.23401,-87.48445,3638,PPL
Holtville,AL,32.63624,-86.32664,4096,PPL
Homewood,AL,33.47177,-86.80082,25708,PPL
Hoover,AL,33.40539,-86.81138,84848,PPL
Horton,AL,34.20093,-86.29692,4450,PPL
Hueytown,AL,33.45122,-86.99666,15710,PPL
Huguley,AL,32.83457,-85.22966,2540,PPL
Huntsville,AL,34.7304,-86.58594,215006,PPLA2
Hurtsboro,AL,32.24181,-85.41633,600,PPL
Ider,AL,34.71425,-85.6808,716,PPL
Indian Springs Village,AL,33.35539,-86.75443,2523,PPL
Inverness,AL,32.01488,-85.74606,1621,PPL
Irondale,AL,33.53816,-86.70721,12423,PPL
Ivalee,AL,34.03454,-86.14525,879,PPL
Jack,AL,31.57405,-86.00023,1379,PPL
Jackson,AL,31.50905,-87.89444,4967,PPL
Jacksons Gap,AL,32.88624,-85.81163,828,PPL
Jacksonville,AL,33.81382,-85.7613,12222,PPL
Jasper,AL,33.83122,-87.27751,14071,PPLA2
Jemison,AL,32.95985,-86.74665,2619,PPL
Joppa,AL,34.29787,-86.5561,501,PPL
Joquin,AL,31.78654,-86.16412,501,PPL
Killen,AL,34.86286,-87.53753,982,PPL
Kimberly,AL,33.77344,-86.81388,2892,PPL
Kinsey,AL,31.29906,-85.34438,2197,PPL
Kinston,AL,31.216,-86.17106,540,PPL
Ladonia,AL,32.4682,-85.0791,3142,PPL
Lafayette,AL,32.89985,-85.40106,3003,PPLA2
Lake Purdy,AL,33.43011,-86.68054,7857,PPL
Lake View,AL,33.28067,-87.1375,2114,PPL
Lanett,AL,32.86874,-85.1905,6452,PPL
Leeds,AL,33.54816,-86.54443,11936,PPL
Leesburg,AL,34.17982,-85.76136,1014,PPL
Leighton,AL,34.70092,-87.52892,712,PPL
Leroy,AL,31.50461,-87.98472,911,PPL
Level Plains,AL,31.29962,-85.77799,2023,PPL
Lexington,AL,34.96925,-87.37113,723,PPL
Lillian,AL,30.41298,-87.43692,1330,PPL
Linden,AL,32.30625,-87.79807,2025,PPLA2
Lincoln,AL,33.61316,-86.11831,6524,PPL
Lineville,AL,33.31067,-85.75441,2319,PPL
Lisman,AL,32.16876,-88.28253,505,PPL
Lipscomb,AL,33.42566,-86.92666,2155,PPL
Littleville,AL,34.59065,-87.67697,990,PPL
Littleville,AL,34.25149,-87.57502,939,PPL
Livingston,AL,32.5843,-88.18725,3414,PPLA2
Lockhart,AL,31.01046,-86.34967,519,PPL
Locust Fork,AL,33.9076,-86.61527,1192,PPL
Loxley,AL,30.61825,-87.75305,1785,PPL
Luverne,AL,31.71655,-86.26385,2834,PPLA2
Lynn,AL,34.04705,-87.54974,641,PPL
Madison,AL,34.69926,-86.74833,46962,PPL
Magnolia Springs,AL,30.39964,-87.7761,791,PPL
Malvern,AL,31.13934,-85.5191,1446,PPL
Maplesville,AL,32.78897,-86.87353,704,PPL
Marbury,AL,32.70124,-86.47109,1418,PPL
Margaret,AL,33.68621,-86.47498,4554,PPL
Marion,AL,32.63235,-87.31917,3447,PPLA2
Mathews,AL,32.26542,-86.00385,593,PPL
McDonald Chapel,AL,33.52177,-86.9336,717,PPL
McKenzie,AL,31.54238,-86.71497,513,PPL
Meadowbrook,AL,33.40205,-86.69665,8769,PPL
Meridianville,AL,34.85148,-86.57222,6021,PPL
Midfield,AL,33.4615,-86.90888,5222,PPL
Midland City,AL,31.31906,-85.49382,2386,PPL
Mignon,AL,33.18345,-86.26109,1284,PPLX
Millbrook,AL,32.47986,-86.36192,15314,PPL
Millport,AL,33.56345,-88.08142,998,PPL
Millry,AL,31.63405,-88.31335,524,PPL
Minor,AL,33.53733,-86.94055,1094,PPL
Mobile,AL,30.69436,-88.04305,183289,PPLA2
Monroeville,AL,31.52794,-87.32471,6110,PPLA2
Montevallo,AL,33.10067,-86.86416,6648,PPL
Montgomery,AL,32.36681,-86.29997,195287,PPLA
Moody,AL,33.59094,-86.49082,12593,PPL
Moores Mill,AL,34.84398,-86.51832,5682,PPL
Morris,AL,33.74816,-86.8086,1934,PPL
Mosses,AL,32.17459,-86.67192,955,PPL
Moulton,AL,34.48121,-87.29335,3337,PPLA2
Moundville,AL,32.99762,-87.63001,2460,PPL
Mount Olive,AL,33.67094,-86.8561,4079,PPL
Mount Vernon,AL,34.29259,-85.78775,817,PPL
Mount Vernon,AL,31.08518,-88.01333,1518,PPL
Mountain Brook,AL,33.50094,-86.75221,20691,PPL
Mulga,AL,33.54983,-86.97416,819,PPL
Munford,AL,33.52983,-85.9508,1259,PPL
Muscle Shoals,AL,34.74481,-87.66753,13706,PPL
New Brockton,AL,31.38572,-85.92939,1159,PPL
New Hope,AL,34.53712,-86.39426,2800,PPL
New Market,AL,34.91003,-86.42779,1597,PPL
New Site,AL,33.03734,-85.77413,755,PPL
Newton,AL,31.33517,-85.60521,1472,PPL
Newville,AL,31.42184,-85.33771,520,PPL
North Bibb,AL,33.20401,-87.15305,1013,PPL
North Courtland,AL,34.67231,-87.32974,632,PPL
Northport,AL,33.22901,-87.57723,24772,PPL
Notasulga,AL,32.56069,-85.67245,856,PPL
Oak Grove,AL,33.19178,-86.29942,517,PPL
Oakman,AL,33.71344,-87.38862,760,PPL
Odenville,AL,33.67732,-86.39665,3695,PPL
Ohatchee,AL,33.78343,-86.00247,1146,PPL
Opelika,AL,32.64541,-85.37828,29527,PPLA2
Oneonta,AL,33.94815,-86.47276,6615,PPLA2
Opp,AL,31.28267,-86.25551,6658,PPL
Orange Beach,AL,30.29437,-87.57359,5850,PPL
Our Town,AL,32.82818,-85.96191,641,PPL
Owens Cross Roads,AL,34.58815,-86.45888,1785,PPL
Oxford,AL,33.61427,-85.83496,21249,PPL
Ozark,AL,31.45906,-85.64049,14719,PPLA2
Parrish,AL,33.73066,-87.28445,963,PPL
Pelham,AL,33.28567,-86.80999,22885,PPL
Pell City,AL,33.58621,-86.28609,13646,PPL
Perdido Beach,AL,30.34076,-87.50498,581,PPL
Phenix City,AL,32.47098,-85.00077,37570,PPLA2
Phil Campbell,AL,34.35093,-87.70642,1235,PPL
Pickensville,AL,33.22734,-88.26642,581,PPL
Piedmont,AL,33.92455,-85.61135,4714,PPL
Pike Road,AL,32.28431,-86.10302,8274,PPL
Pinckard,AL,31.31156,-85.55299,634,PPL
Pine Hill,AL,31.97959,-87.58806,919,PPL
Pine Level,AL,32.58374,-86.46553,4183,PPL
Pinson,AL,33.68899,-86.68332,7438,PPL
Pisgah,AL,34.68092,-85.84775,711,PPL
Pisgah,AL,31.99682,-86.11829,697,PPL
Pleasant Grove,AL,33.49094,-86.97027,10260,PPL
Point Clear,AL,30.47408,-87.91916,2125,PPL
Powell,AL,34.53183,-85.89455,957,PPL
Prattville,AL,32.46402,-86.4597,35420,PPLA2
Priceville,AL,34.52509,-86.89473,3179,PPL
Prichard,AL,30.7388,-88.07889,22351,PPL
Ragland,AL,33.74454,-86.15581,1682,PPL
Rainbow City,AL,33.95482,-86.04192,9580,PPL
Rainsville,AL,34.49425,-85.84775,5031,PPL
Red Bay,AL,34.43982,-88.14087,3131,PPL
Reece City,AL,34.07232,-86.03331,632,PPL
Reeltown,AL,32.60374,-85.80524,766,PPL
Reform,AL,33.37845,-88.0153,1632,PPL
Rehobeth,AL,31.12296,-85.45271,1449,PPL
Riverside,AL,33.60621,-86.20442,2300,PPL
River Falls,AL,31.35327,-86.54102,527,PPL
Roanoke,AL,33.15123,-85.37217,6005,PPL
Robertsdale,AL,30.5538,-87.71193,5894,PPL
Rock Creek,AL,33.47705,-87.08027,1456,PPL
Rock Mills,AL,33.15984,-85.28745,600,PPL
Rockford,AL,32.88957,-86.21969,449,PPLA2
Rogersville,AL,34.82578,-87.29676,1231,PPL
Russellville,AL,34.50787,-87.72864,9847,PPLA2
Saks,AL,33.69871,-85.83969,10744,PPL
Samson,AL,31.11295,-86.04605,1928,PPL
Sand Rock,AL,34.24287,-85.76858,558,PPL
Saraland,AL,30.82074,-88.07056,13906,PPL
Sardis City,AL,34.17426,-86.12275,1755,PPL
Satsuma,AL,30.85324,-88.05611,6182,PPL
Scottsboro,AL,34.67231,-86.03415,14722,PPLA2
Section,AL,34.57897,-85.98664,759,PPL
Selma,AL,32.40736,-87.0211,19519,PPLA2
Semmes,AL,30.77824,-88.25917,3886,PPL
Sheffield,AL,34.76509,-87.69864,9108,PPL
Shelby,AL,33.1104,-86.58415,1044,PPL
Silverhill,AL,30.54547,-87.75166,761,PPL
Skyline,AL,34.81397,-86.11526,839,PPL
Slocomb,AL,31.10823,-85.59438,1972,PPL
Smiths Station,AL,32.54014,-85.09855,5300,PPL
Smoke Rise,AL,33.89177,-86.82027,1825,PPL
Snead,AL,34.11954,-86.39554,843,PPL
Somerville,AL,34.47338,-86.7987,716,PPL
South Vinemont,AL,34.23899,-86.86445,757,PPL
Southside,AL,33.92454,-86.02247,8572,PPL
Spanish Fort,AL,30.67491,-87.91527,8065,PPL
Springville,AL,33.77505,-86.47191,4198,PPL
Steele,AL,33.93982,-86.20164,1078,PPL
Sterrett,AL,33.44872,-86.47998,712,PPL
Stevenson,AL,34.86869,-85.83942,1991,PPL
Stewartville,AL,33.07929,-86.24442,1767,PPL
Sulligent,AL,33.90177,-88.13448,1844,PPL
Sumiton,AL,33.75566,-87.05,2418,PPL
Summerdale,AL,30.4877,-87.69971,1128,PPL
Sylacauga,AL,33.17317,-86.25164,12657,PPL
Sylvan Springs,AL,33.51566,-87.01499,1524,PPL
Sylvania,AL,34.56231,-85.81247,1854,PPL
Talladega,AL,33.43594,-86.1058,15709,PPLA2
Tallassee,AL,32.53597,-85.89329,4778,PPL
Tarrant,AL,33.58344,-86.77277,6210,PPL
Taylor,AL,31.1649,-85.46827,2402,PPL
Taylor,AL,31.97543,-86.2333,1946,PPL
Theodore,AL,30.54769,-88.17528,6130,PPL
Thomasville,AL,31.91349,-87.73584,4051,PPL
Thorsby,AL,32.91568,-86.71582,2044,PPL
Tillmans Corner,AL,30.59019,-88.17084,17398,PPL
Town Creek,AL,34.6812,-87.40613,1065,PPL
Trafford,AL,33.81816,-86.74277,634,PPL
Triana,AL,34.5862,-86.73333,525,PPL
Trinity,AL,34.60676,-87.08835,2157,PPL
Troy,AL,31.80877,-85.96995,18853,PPLA2
Trussville,AL,33.61983,-86.60888,21023,PPL
Tuscaloosa,AL,33.20984,-87.56917,111338,PPLA2
Tuscumbia,AL,34.7312,-87.70253,8474,PPLA2
Tuskegee,AL,32.42415,-85.69096,8817,PPLA2
Union Springs,AL,32.14432,-85.71495,3919,PPLA2
Uniontown,AL,32.44958,-87.51417,2415,PPL
Valley,AL,32.81874,-85.17939,9464,PPL
Valley Grande,AL,32.50902,-86.98749,3849,PPL
Valley Head,AL,34.56897,-85.61497,550,PPL
Vandiver,AL,33.47066,-86.51332,1135,PPL
Vance,AL,33.17428,-87.23361,1513,PPL
Vernon,AL,33.75705,-88.10892,1895,PPLA2
Vestavia Hills,AL,33.44872,-86.78777,34174,PPL
Vincent,AL,33.38455,-86.41192,2120,PPL
Wadley,AL,33.12289,-85.56968,738,PPL
Walnut Grove,AL,34.06565,-86.30637,685,PPL
Warrior,AL,33.81427,-86.80944,3199,PPL
Weaver,AL,33.75205,-85.81135,3091,PPL
Webb,AL,31.26045,-85.27327,1413,PPL
Wedowee,AL,33.309,-85.48467,809,PPLA2
West Blocton,AL,33.11817,-87.125,1261,PPL
West Point,AL,34.23871,-86.95917,593,PPL
Westover,AL,33.34955,-86.53582,1473,PPL
Wetumpka,AL,32.54374,-86.21191,7994,PPLA2
White Hall,AL,32.32708,-86.71192,811,PPL
White Plains,AL,33.74732,-85.68913,811,PPL
Whitesboro,AL,34.16343,-86.06942,2138,PPL
Wilmer,AL,30.82324,-88.3614,597,PPL
Wilsonville,AL,33.23428,-86.48359,1980,PPL
Winfield,AL,33.92899,-87.81725,4570,PPL
Woodstock,AL,33.20678,-87.15,1547,PPL
Woodville,AL,34.62787,-86.27443,735,PPL
York,AL,32.48625,-88.29642,2399,PPL
Alexander,AR,34.62954,-92.44127,2848,PPL
Alma,AR,35.47787,-94.22188,5575,PPL
Altheimer,AR,34.31926,-91.84736,894,PPL
Altus,AR,35.4462,-93.76242,730,PPL
Amity,AR,34.26482,-93.46102,702,PPL
Arkadelphia,AR,34.12093,-93.05378,10745,PPLA2
Arkansas City,AR,33.60872,-91.20678,327,PPLA2
Ash Flat,AR,36.22396,-91.60848,1064,PPLA2
Ashdown,AR,33.67429,-94.13131,4479,PPLA2
Atkins,AR,35.24647,-92.93656,3051,PPL
Augusta,AR,35.28231,-91.36541,2051,PPLA2
Austin,AR,34.99842,-91.98376,3383,PPL
Avoca,AR,36.40202,-94.07076,512,PPL
Avilla,AR,34.68259,-92.58516,896,PPL
Bald Knob,AR,35.30981,-91.56791,2908,PPL
Barling,AR,35.32565,-94.3016,4740,PPL
Batesville,AR,35.7698,-91.64097,10668,PPLA2
Bay,AR,35.7423,-90.56233,1813,PPL
Bearden,AR,33.72455,-92.61571,897,PPL
Beebe,AR,35.07064,-91.87959,8106,PPL
Bella Vista,AR,36.4807,-94.27134,27999,PPL
Benton,AR,34.56454,-92.58683,34177,PPLA2
Bentonville,AR,36.37285,-94.20882,44499,PPLA2
Berryville,AR,36.36479,-93.56797,5371,PPL
Bethel Heights,AR,36.21424,-94.12937,2490,PPL
Black Rock,AR,36.1084,-91.09735,625,PPL
Blytheville,AR,35.9273,-89.91898,14694,PPL
Bonanza,AR,35.23926,-94.42605,556,PPL
Bono,AR,35.90868,-90.80262,2236,PPL
Booneville,AR,35.14009,-93.92159,3888,PPL
Bradford,AR,35.42314,-91.45596,760,PPL
Bradley,AR,33.09819,-93.6549,566,PPL
Brinkley,AR,34.88787,-91.19457,2890,PPL
Brookland,AR,35.90007,-90.58205,2977,PPL
Bryant,AR,34.59593,-92.48905,19986,PPL
Bull Shoals,AR,36.38396,-92.58155,1933,PPL
Cabot,AR,34.97453,-92.01653,25587,PPL
Caddo Valley,AR,34.18204,-93.07101,607,PPL
Calico Rock,AR,36.11951,-92.13599,1734,PPL
Camden,AR,33.58456,-92.83433,11347,PPLA2
Cammack Village,AR,34.77815,-92.34904,748,PPL
Caraway,AR,35.75813,-90.32232,1270,PPL
Carlisle,AR,34.78315,-91.74652,2183,PPL
Cave City,AR,35.94174,-91.54847,1868,PPL
Cave Springs,AR,36.26341,-94.23187,3076,PPL
Cedarville,AR,35.56981,-94.36688,1368,PPL
Centerton,AR,36.3598,-94.28521,12023,PPL
Charleston,AR,35.29704,-94.03632,2483,PPL
Cherokee Village,AR,36.29784,-91.51597,4603,PPL
Cherry Valley,AR,35.40203,-90.75317,615,PPL
Clarendon,AR,34.69315,-91.31374,1504,PPLA2
Clarksville,AR,35.47147,-93.46657,9433,PPLA2
Clinton,AR,35.59147,-92.46044,2538,PPLA2
Coal Hill,AR,35.43731,-93.67297,1025,PPL
College City,AR,36.12535,-90.93929,537,PPL
College Station,AR,34.70815,-92.22126,600,PPL
Conway,AR,35.0887,-92.4421,64980,PPLA2
Corning,AR,36.40784,-90.57983,3162,PPL
Cotter,AR,36.27118,-92.53544,951,PPL
Cotton Plant,AR,35.00815,-91.25124,604,PPL
Crossett,AR,33.12818,-91.96124,5220,PPL
Danville,AR,35.05398,-93.39352,2350,PPL
Dardanelle,AR,35.22314,-93.15795,4659,PPL
De Queen,AR,34.03789,-94.34132,6707,PPLA2
De Valls Bluff,AR,34.78482,-91.45846,587,PPL
De Witt,AR,34.29288,-91.3379,3292,PPL
Decatur,AR,36.33591,-94.46077,1773,PPL
Dennard,AR,35.75674,-92.52461,530,PPL
Dermott,AR,33.52539,-91.43595,2720,PPL
Des Arc,AR,34.97704,-91.49513,1639,PPL
Diamond City,AR,36.46451,-92.92017,781,PPL
Diaz,AR,35.63841,-91.26513,1248,PPL
Dierks,AR,34.11928,-94.01658,1092,PPL
Dover,AR,35.40147,-93.11434,1398,PPL
Dumas,AR,33.88705,-91.49179,4323,PPL
Dyer,AR,35.49231,-94.13771,860,PPL
Earle,AR,35.27509,-90.46677,2282,PPL
East End,AR,34.55065,-92.34099,6998,PPL
El Dorado,AR,33.20763,-92.66627,18386,PPLA2
Elaine,AR,34.30844,-90.85205,556,PPL
Elkins,AR,36.00147,-94.00825,2946,PPL
Elm Springs,AR,36.20619,-94.23437,2147,PPL
England,AR,34.54426,-91.96903,2765,PPL
Eudora,AR,33.10957,-91.26206,2102,PPL
Eureka Springs,AR,36.40118,-93.73797,2083,PPL
Fairfield Bay,AR,35.59424,-92.27793,2268,PPL
Farmington,AR,36.04202,-94.24715,6701,PPL
Fayetteville,AR,36.06258,-94.15743,82830,PPLA2
Flippin,AR,36.27896,-92.59711,1335,PPL
Foreman,AR,33.72178,-94.39687,951,PPL
Fordyce,AR,33.81372,-92.41293,4027,PPLA2
Forrest City,AR,35.00815,-90.78983,14672,PPLA2
Fort Smith,AR,35.38592,-94.39855,88194,PPL
Fouke,AR,33.26124,-93.88546,873,PPL
Fountain Lake,AR,34.57287,-92.98768,503,PPL
Garfield,AR,36.44841,-93.97409,527,PPL
Gassville,AR,36.28312,-92.49405,2133,PPL
Gentry,AR,36.26758,-94.48466,3397,PPL
Gibson,AR,34.88426,-92.2357,3543,PPL
Gillett,AR,34.11732,-91.37651,688,PPL
Glenwood,AR,34.32677,-93.55074,2141,PPL
Gosnell,AR,35.95979,-89.97203,2689,PPL
Goshen,AR,36.10119,-93.99131,1589,PPL
Gould,AR,33.9851,-91.56096,778,PPL
Grannis,AR,34.24067,-94.33493,562,PPL
Gravel Ridge,AR,34.86842,-92.1907,2902,PPL
Gravette,AR,36.42202,-94.45355,3232,PPL
Green Forest,AR,36.33535,-93.43602,2769,PPL
Greenbrier,AR,35.23397,-92.38765,5296,PPL
Greenland,AR,35.99425,-94.1752,1388,PPL
Greenwood,AR,35.21565,-94.25577,9322,PPL
Greers Ferry,AR,35.57702,-92.17737,871,PPL
Gurdon,AR,33.92094,-93.15406,2144,PPL
Hackett,AR,35.19037,-94.41105,818,PPL
Hamburg,AR,33.22818,-91.79763,2791,PPLA2
Hampton,AR,33.53789,-92.46988,1281,PPLA2
Hardy,AR,36.3159,-91.48264,759,PPL
Harrisburg,AR,35.56425,-90.71678,2302,PPLA2
Harrison,AR,36.22979,-93.10768,13138,PPLA2
Hartford,AR,35.02288,-94.38133,643,PPL
Hartman,AR,35.43258,-93.61547,530,PPL
Haskell,AR,34.50148,-92.63655,4480,PPL
Hazen,AR,34.78093,-91.58097,1404,PPL
Heber Springs,AR,35.49147,-92.03126,7156,PPLA2
Helena,AR,34.52955,-90.59177,5548,PPLA2
Hermitage,AR,33.4465,-92.17403,804,PPL
Higginson,AR,35.19481,-91.71264,653,PPL
Highland,AR,36.2759,-91.52403,1054,PPL
Highfill,AR,36.26147,-94.35771,632,PPL
Holiday Island,AR,36.48535,-93.73214,2373,PPL
Holland,AR,35.17147,-92.27376,546,PPL
Holly Grove,AR,34.59593,-91.19984,546,PPL
Hope,AR,33.66706,-93.59157,9891,PPLA2
Horatio,AR,33.93845,-94.35715,1058,PPL
Horseshoe Bend,AR,36.22923,-91.76431,2092,PPL
Hot Springs,AR,34.5037,-93.05518,35635,PPLA2
Hot Springs Village,AR,34.67204,-92.99879,12807,PPL
Hoxie,AR,36.05035,-90.97512,2680,PPL
Hughes,AR,34.94926,-90.47149,1323,PPL
Humphrey,AR,34.42204,-91.70624,524,PPL
Huntington,AR,35.08232,-94.26327,626,PPL
Huntsville,AR,36.08619,-93.7413,2378,PPLA2
Huttig,AR,33.03957,-92.18264,564,PPL
Imboden,AR,36.20257,-91.17457,640,PPL
Jacksonville,AR,34.8662,-92.11015,28643,PPL
Jasper,AR,36.00813,-93.18657,449,PPLA2
Johnson,AR,36.13286,-94.16548,3634,PPL
Joiner,AR,35.50786,-90.14704,540,PPL
Jonesboro,AR,35.8423,-90.70428,73907,PPL
Judsonia,AR,35.27009,-91.63986,2027,PPL
Junction City,AR,33.01625,-92.72432,547,PPL
Keiser,AR,35.67452,-90.09981,704,PPL
Kensett,AR,35.23175,-91.66764,1651,PPL
Kibler,AR,35.43037,-94.2316,943,PPL
Kirby,AR,34.25038,-93.6413,786,PPL
Knoxville,AR,35.38203,-93.36435,746,PPL
Lake City,AR,35.81619,-90.43427,2324,PPL
Lake Hamilton,AR,34.42453,-93.09518,2135,PPL
Lake Village,AR,33.32873,-91.28178,2575,PPLA2
Lakeview,AR,36.36868,-92.54544,726,PPL
Lamar,AR,35.44064,-93.38796,1668,PPL
Landmark,AR,34.6112,-92.3196,3555,PPL
Lavaca,AR,35.3362,-94.17326,2404,PPL
Leachville,AR,35.93591,-90.25788,1868,PPL
Leola,AR,34.16954,-92.59099,503,PPL
Lepanto,AR,35.61119,-90.32982,1834,PPL
Lewisville,AR,33.35846,-93.57768,1181,PPLA2
Lincoln,AR,35.94953,-94.42355,2431,PPL
Little Flock,AR,36.38591,-94.1352,2748,PPL
Little Rock,AR,34.74648,-92.28959,202591,PPLA
Lockesburg,AR,33.96734,-94.16853,741,PPL
London,AR,35.32897,-93.25296,1046,PPL
Lonoke,AR,34.78398,-91.89986,4249,PPLA2
Lowell,AR,36.25535,-94.13076,8549,PPL
Luxora,AR,35.75619,-89.92814,1102,PPL
Madison,AR,35.01315,-90.72261,707,PPL
Magazine,AR,35.15092,-93.80687,823,PPL
Magnolia,AR,33.26707,-93.23933,11669,PPLA2
Malvern,AR,34.36231,-92.81295,10928,PPLA2
Mammoth Spring,AR,36.49562,-91.5407,969,PPL
Manila,AR,35.88007,-90.16704,3736,PPL
Mansfield,AR,35.05954,-94.25271,1096,PPL
Marianna,AR,34.77371,-90.75761,3766,PPLA2
Marion,AR,35.21453,-90.19648,12292,PPLA2
Marked Tree,AR,35.53286,-90.42066,2501,PPL
Marmaduke,AR,36.18701,-90.38316,1216,PPL
Marshall,AR,35.90896,-92.63127,1300,PPLA2
Marvell,AR,34.55566,-90.91289,1047,PPL
Maumelle,AR,34.86676,-92.40432,17931,PPL
Mayflower,AR,34.95703,-92.42738,2431,PPL
McAlmont,AR,34.80842,-92.18181,1873,PPL
McCrory,AR,35.2562,-91.20012,1601,PPL
McGehee,AR,33.629,-91.39956,3919,PPL
McRae,AR,35.11286,-91.82236,680,PPL
Melbourne,AR,36.05951,-91.90848,1779,PPLA2
Mena,AR,34.58622,-94.23966,5653,PPLA2
Midway,AR,36.38534,-92.46183,1084,PPL
Mineral Springs,AR,33.87512,-93.9138,1161,PPL
Monette,AR,35.89063,-90.34427,1527,PPL
Monticello,AR,33.629,-91.79096,9820,PPLA2
Morrilton,AR,35.15092,-92.74405,6738,PPLA2
Mount Ida,AR,34.55676,-93.63408,1025,PPLA2
Mountain Pine,AR,34.57203,-93.17324,778,PPL
Mountain View,AR,35.86841,-92.11765,2837,PPLA2
Mountainburg,AR,35.63564,-94.16743,619,PPL
Mountain Home,AR,36.33534,-92.38516,12330,PPLA2
Mulberry,AR,35.50064,-94.05159,1634,PPL
Murfreesboro,AR,34.06233,-93.6899,1580,PPLA2
Nashville,AR,33.94567,-93.84713,4479,PPLA2
Newark,AR,35.70174,-91.44152,1177,PPL
Newport,AR,35.6048,-91.2818,7767,PPLA2
Norphlet,AR,33.31596,-92.66293,824,PPL
North Crossett,AR,33.16568,-91.94152,3119,PPL
North Little Rock,AR,34.76954,-92.26709,66504,PPL
Oak Grove Heights,AR,36.1209,-90.51066,991,PPL
Ola,AR,35.03231,-93.22323,1250,PPL
Oppelo,AR,35.1012,-92.76767,766,PPL
Osceola,AR,35.70508,-89.96953,7233,PPL
Oxford,AR,36.22118,-91.92932,647,PPL
Ozark,AR,35.48703,-93.8277,3590,PPL
Palestine,AR,34.97232,-90.90262,623,PPL
Pangburn,AR,35.42675,-91.83681,602,PPL
Paragould,AR,36.0584,-90.49733,27900,PPLA2
Paris,AR,35.29203,-93.72992,3443,PPL
Parkin,AR,35.26342,-90.57122,1105,PPL
Pea Ridge,AR,33.92066,-91.33679,2879,PPL
Pea Ridge,AR,36.45396,-94.1152,5242,PPL
Perryville,AR,35.00481,-92.80267,1432,PPLA2
Piggott,AR,36.38284,-90.19065,3655,PPL
Pine Bluff,AR,34.22843,-92.0032,44772,PPLA2
Piney,AR,34.50314,-93.12602,4699,PPL
Plainview,AR,34.98954,-93.2974,598,PPL
Plumerville,AR,35.16008,-92.64072,805,PPL
Pocahontas,AR,36.26146,-90.97123,6438,PPLA2
Pottsville,AR,35.24814,-93.04906,3082,PPL
Prairie Creek,AR,36.34202,-94.06187,2066,PPL
Prairie Grove,AR,35.97591,-94.31771,5186,PPL
Prescott,AR,33.80261,-93.38101,3133,PPLA2
Quitman,AR,35.38425,-92.21571,742,PPL
Rector,AR,36.26312,-90.2926,1840,PPL
Redfield,AR,34.4451,-92.1832,1541,PPL
Rison,AR,33.95843,-92.19015,1282,PPLA2
Rockport,AR,34.38759,-92.82545,753,PPL
Rockwell,AR,34.46426,-93.13379,3780,PPL
Rogers,AR,36.33202,-94.11854,63159,PPL
Roland,AR,34.90064,-92.49821,746,PPL
Russellville,AR,35.27842,-93.13379,29166,PPLA2
Salem,AR,36.37118,-91.82265,1634,PPLA2
Salem,AR,34.62898,-92.55822,2607,PPL
Searcy,AR,35.25064,-91.73625,24196,PPLA2
Shannon Hills,AR,34.62009,-92.39543,3786,PPL
Sheridan,AR,34.30704,-92.40127,4812,PPLA2
Siloam Springs,AR,36.18814,-94.5405,16081,PPL
Smackover,AR,33.36485,-92.72488,1782,PPL
Southside,AR,35.69841,-91.62347,2231,PPL
Springdale,AR,36.18674,-94.12881,77859,PPL
Stamps,AR,33.3654,-93.49518,1551,PPL
Star City,AR,33.94288,-91.84347,2180,PPLA2
Stephens,AR,33.41123,-93.06961,827,PPL
Strong,AR,33.10763,-92.33486,558,PPL
Stuttgart,AR,34.50037,-91.55263,9056,PPL
Subiaco,AR,35.29287,-93.63464,562,PPL
Sulphur Springs,AR,36.48341,-94.45855,526,PPL
Sulphur Springs,AR,34.18065,-92.12348,1101,PPL
Summit,AR,36.25229,-92.69072,579,PPL
Sweet Home,AR,34.68648,-92.24237,849,PPL
Swifton,AR,35.82174,-91.12846,756,PPL
Taylor,AR,33.10041,-93.46101,545,PPL
Texarkana,AR,33.44179,-94.03769,30353,PPLA2
Tontitown,AR,36.17786,-94.23354,2811,PPL
Traskwood,AR,34.44926,-92.65405,543,PPL
Trumann,AR,35.67369,-90.50733,7145,PPL
Tuckerman,AR,35.73063,-91.19846,1759,PPL
Tumbling Shoals,AR,35.54202,-91.96737,978,PPL
Turrell,AR,35.37981,-90.25787,575,PPL
Tyronza,AR,35.49008,-90.35871,744,PPL
Van Buren,AR,35.43676,-94.34827,23081,PPLA2
Vilonia,AR,35.08398,-92.20793,4439,PPL
Waldo,AR,33.35151,-93.29573,1301,PPL
Waldron,AR,34.89843,-94.09076,3442,PPLA2
Walnut Ridge,AR,36.0684,-90.95595,4673,PPLA2
Ward,AR,35.03036,-91.95042,4704,PPL
Warren,AR,33.61261,-92.06458,5804,PPLA2
Weiner,AR,35.62036,-90.89845,688,PPL
West Crossett,AR,33.14096,-91.99402,1256,PPL
West Fork,AR,35.92425,-94.18854,2543,PPL
West Helena,AR,34.55066,-90.64177,7679,PPL
West Memphis,AR,35.14648,-90.18454,25052,PPL
White Hall,AR,34.27399,-92.09098,5180,PPL
Wickes,AR,34.30317,-94.33827,734,PPL
Wilmar,AR,33.629,-91.93152,508,PPL
Wilmot,AR,33.05735,-91.57345,518,PPL
Wilson,AR,35.56814,-90.04203,871,PPL
Wilson,AR,35.21036,-92.92961,839,PPL
Wooster,AR,35.20203,-92.45599,999,PPL
Wrightsville,AR,34.60232,-92.21681,2260,PPL
Wynne,AR,35.22453,-90.78678,8193,PPLA2
Yellville,AR,36.22618,-92.68489,1169,PPLA2
Adams Morgan,DC,38.9215,-77.0422,15830,PPL
Anacostia,DC,38.8665,-76.98386,11789,PPL
Barry Farms,DC,38.8565,-76.99136,4129,PPL
Bellevue,DC,38.82678,-77.0197,9643,PPL
Benning,DC,38.89511,-76.94886,8978,PPL
Bloomingdale,DC,38.91678,-77.01137,4980,PPL
Brentwood Village,DC,38.92094,-76.98442,11359,PPL
Brightwood,DC,38.96122,-77.02748,17624,PPL
Brookland,DC,38.93289,-76.98414,8259,PPL
Capitol Hill,DC,38.889,-77.00025,15056,PPLX
Chevy Chase,DC,38.981,-77.083,9545,PPL
Cleveland Park,DC,38.93622,-77.06553,9790,PPL
Columbia Heights,DC,38.92567,-77.02942,38000,PPL
Congress Heights,DC,38.84289,-77.00025,8180,PPL
Deanwood,DC,38.89845,-76.92942,9895,PPL
Dupont Circle,DC,38.90844,-77.04414,23226,PPLX
Foggy Bottom,DC,38.9015,-77.0622,22146,PPL
Fort Lincoln,DC,38.92233,-76.95636,6367,PPL
Georgetown,DC,38.90483,-77.06248,11887,PPLX
Glover Park,DC,38.92094,-77.0772,8124,PPL
Hillcrest,DC,38.86206,-76.95803,10205,PPL
Ivy City,DC,38.91122,-76.9847,5264,PPL
Kenilworth,DC,38.90595,-76.94025,7679,PPL
Lincoln Heights,DC,38.89456,-76.92886,8858,PPL
Mount Pleasant,DC,38.93067,-77.04081,35842,PPL
Park View,DC,38.93206,-77.02359,18796,PPL
Pennsylvania Avenue SE,DC,38.86817,-76.95803,5151,PPL
Petworth,DC,38.94594,-77.02498,18983,PPL
Pleasant Plains,DC,38.93067,-77.03025,21174,PPL
Riggs Park,DC,38.95428,-76.99414,9125,PPL
Shaw,DC,38.91206,-77.02137,17639,PPL
Tenleytown,DC,38.94956,-77.08581,5684,PPL
Washington,DC,38.89511,-77.03637,689545,PPLC
Woodley Park,DC,38.92872,-77.05581,9856,PPL
Woodridge,DC,38.93122,-76.97109,6671,PPL
Bear,DE,39.62928,-75.65826,19371,PPL
Bellefonte,DE,39.766,-75.502,1193,PPL
Bethany Beach,DE,38.53956,-75.05518,1170,PPL
Blades,DE,38.63567,-75.60993,1354,PPL
Bridgeville,DE,38.74261,-75.60437,2256,PPL
Brookside,DE,39.66706,-75.72688,14353,PPL
Camden,DE,39.11345,-75.54187,3505,PPL
Cheswold,DE,39.21928,-75.58576,1415,PPL
Claymont,DE,39.80067,-75.45964,8253,PPL
Clayton,DE,39.29067,-75.63437,3123,PPL
Dagsboro,DE,38.54928,-75.24574,859,PPL
Delaware City,DE,39.57775,-75.58945,1741,PPL
Delmar,DE,38.45651,-75.57715,1730,PPL
Dover,DE,39.15817,-75.52437,39403,PPLA
Edgemoor,DE,39.75011,-75.49964,5677,PPL
Elsmere,DE,39.73928,-75.59798,6146,PPL
Felton,DE,39.00845,-75.57798,1402,PPL
Frankford,DE,38.51734,-75.23491,933,PPL
Frederica,DE,39.009,-75.46575,825,PPL
Georgetown,DE,38.69011,-75.38547,7051,PPLA2
Glasgow,DE,39.60483,-75.74521,14303,PPL
Greenville,DE,39.779,-75.59826,2326,PPL
Greenwood,DE,38.80706,-75.59132,1066,PPL
Harrington,DE,38.92372,-75.5777,3691,PPL
Highland Acres,DE,39.12095,-75.52187,3459,PPL
Hockessin,DE,39.78761,-75.6966,13527,PPL
Kent Acres,DE,39.13178,-75.52492,1890,PPL
Laurel,DE,38.5565,-75.57131,4075,PPL
Lewes,DE,38.77456,-75.13935,3010,PPL
Long Neck,DE,38.62011,-75.15074,1980,PPL
Middletown,DE,39.44956,-75.71632,20372,PPL
Milford,DE,38.91261,-75.42797,10252,PPL
Millsboro,DE,38.5915,-75.2913,4216,PPL
Millville,DE,38.54956,-75.12324,590,PPL
Milton,DE,38.77761,-75.30991,2824,PPL
Nassau,DE,38.75206,-75.18769,3699,PPL
New Castle,DE,39.65948,-75.56359,5382,PPL
Newark,DE,39.68372,-75.74966,33817,PPL
Newport,DE,39.71372,-75.60937,1058,PPL
North Star,DE,39.76122,-75.7191,7980,PPL
Pike Creek,DE,39.73095,-75.7041,7898,PPL
Pike Creek Valley,DE,39.73622,-75.69827,11217,PPL
Rehoboth Beach,DE,38.72095,-75.07601,1458,PPL
Riverview,DE,39.0265,-75.51076,2456,PPL
Rodney Village,DE,39.13206,-75.53242,1487,PPL
Seaford,DE,38.64123,-75.61104,7586,PPL
Selbyville,DE,38.46039,-75.22074,2397,PPL
Smyrna,DE,39.29983,-75.60465,11319,PPL
Townsend,DE,39.39511,-75.6916,2177,PPL
Wilmington,DE,39.74595,-75.54659,70898,PPLA2
Wilmington Manor,DE,39.68678,-75.58437,7889,PPL
Wyoming,DE,39.11817,-75.55881,1465,PPL
Aberdeen,FL,26.55063,-80.14866,2672,PPL
Alachua,FL,29.75163,-82.42483,9757,PPL
Allapattah,FL,25.81454,-80.22394,54289,PPL
Allentown,FL,30.76269,-87.04219,894,PPL
Altamonte Springs,FL,28.66111,-81.36562,43159,PPL
Altha,FL,30.57047,-85.12714,529,PPL
Alturas,FL,27.87169,-81.71508,4185,PPL
Alva,FL,26.71562,-81.61008,2596,PPL
Andover,FL,25.96843,-80.21283,9877,PPL
Andrews,FL,29.53293,-82.88169,798,PPL
Anna Maria,FL,27.53115,-82.73343,1669,PPL
Apalachicola,FL,29.726,-84.9856,2281,PPLA2
Apollo Beach,FL,27.77308,-82.40759,14055,PPL
Apopka,FL,28.67617,-81.51186,48382,PPL
Arcadia,FL,27.21588,-81.85842,7851,PPLA2
Archer,FL,29.52997,-82.519,1173,PPL
Asbury Lake,FL,30.04913,-81.82149,8700,PPL
Astatula,FL,28.70972,-81.73285,1917,PPL
Astor,FL,29.16248,-81.52535,1556,PPL
Atlantic Beach,FL,30.33441,-81.3987,13193,PPL
Atlantis,FL,26.5909,-80.10088,2106,PPL
Auburndale,FL,28.0653,-81.78869,15035,PPL
Ave Maria,FL,26.33667,-81.43806,6242,PPL
Aventura,FL,25.95648,-80.13921,37649,PPL
Avon Park,FL,27.59587,-81.50619,10086,PPL
Azalea Park,FL,28.54111,-81.30062,12556,PPL
Babson Park,FL,27.83197,-81.5223,1356,PPL
Bagdad,FL,30.5988,-87.03223,3761,PPL
Bal Harbour,FL,25.89176,-80.12699,2877,PPL
Baldwin,FL,30.30274,-81.97539,1453,PPL
Balm,FL,27.75947,-82.2612,1457,PPL
Bartow,FL,27.89641,-81.84314,18972,PPLA2
Bay Harbor Islands,FL,25.88759,-80.13116,6036,PPL
Bay Hill,FL,28.46806,-81.51618,4884,PPL
Bay Pines,FL,27.81419,-82.77816,2931,PPL
Bayonet Point,FL,28.32667,-82.68343,23467,PPL
Bayshore Gardens,FL,27.42532,-82.59038,16323,PPL
Beacon Square,FL,28.20862,-82.75538,7224,PPL
Bee Ridge,FL,27.28394,-82.48065,9598,PPL
Belle Glade,FL,26.68451,-80.66756,18251,PPL
Belle Glade Camp,FL,26.65757,-80.68284,1167,PPL
Belle Isle,FL,28.45834,-81.35924,6689,PPL
Belleair,FL,27.93585,-82.80621,3992,PPL
Belleair Beach,FL,27.92308,-82.84316,1609,PPL
Belleair Bluffs,FL,27.92141,-82.81705,2095,PPL
Belleview,FL,29.05526,-82.06231,4765,PPL
Bellview,FL,30.46159,-87.31497,23355,PPL
Beverly Hills,FL,28.91692,-82.45815,8445,PPL
Big Coppitt Key,FL,24.59653,-81.66009,2458,PPL
Big Pine Key,FL,24.66987,-81.35397,4252,PPL
Biscayne Park,FL,25.8826,-80.1806,3216,PPL
Bithlo,FL,28.55472,-81.10645,8268,PPL
Black Diamond,FL,28.91248,-82.48593,1101,PPL
Bloomingdale,FL,27.89364,-82.24037,22711,PPL
Blountstown,FL,30.44379,-85.04744,2497,PPLA2
Boca Del Mar,FL,26.34508,-80.14671,24244,PPL
Boca Pointe,FL,26.33313,-80.15949,4073,PPL
Boca Raton,FL,26.35869,-80.0831,93235,PPL
Bokeelia,FL,26.70563,-82.15898,1780,PPL
Bonifay,FL,30.79186,-85.67965,2726,PPLA2
Bonita Springs,FL,26.33981,-81.7787,51704,PPL
Bowling Green,FL,27.63837,-81.82397,2919,PPL
Boyette,FL,27.81753,-82.22259,6518,PPL
Boynton Beach,FL,26.52535,-80.06643,73966,PPL
Bradenton,FL,27.49893,-82.57482,54437,PPLA2
Bradenton Beach,FL,27.46761,-82.6983,1171,PPL
Bradley Junction,FL,27.79531,-81.98036,686,PPL
Brandon,FL,27.9378,-82.28592,103483,PPL
Branford,FL,29.95912,-82.92818,721,PPL
Brent,FL,30.46881,-87.23608,21804,PPL
Briny Breezes,FL,26.50841,-80.05087,603,PPL
Bristol,FL,30.43247,-84.97702,976,PPLA2
Broadview Park,FL,26.09953,-80.20866,7125,PPL
Bronson,FL,29.44774,-82.64233,1110,PPLA2
Brookridge,FL,28.5511,-82.49204,4420,PPL
Brooksville,FL,28.55554,-82.38991,7854,PPLA2
Broward Estates,FL,26.12564,-80.19338,3777,PPL
Brownsville,FL,25.82176,-80.24116,15313,PPL
Buckhead Ridge,FL,27.13033,-80.89367,1450,PPL
Buckingham,FL,26.67507,-81.73203,4036,PPL
Buenaventura Lakes,FL,28.33584,-81.35313,26079,PPL
Bunche Park,FL,25.92065,-80.23699,4080,PPL
Bunnell,FL,29.46609,-81.25784,2828,PPLA2
Burnt Store Marina,FL,26.76507,-82.05092,1793,PPL
Bushnell,FL,28.66499,-82.11286,2995,PPLA2
Butler Beach,FL,29.7983,-81.26701,4951,PPL
Callahan,FL,30.56218,-81.83066,1185,PPL
Callaway,FL,30.15298,-85.56993,14405,PPL
Campbell,FL,28.2589,-81.45646,2479,PPL
Cantonment,FL,30.60853,-87.33998,26493,PPLX
Cape Canaveral,FL,28.40584,-80.60477,9912,PPL
Cape Coral,FL,26.56285,-81.94953,175229,PPL
Captiva,FL,26.52202,-82.18926,583,PPL
Carol City,FL,25.94065,-80.2456,63031,PPL
Carrabelle,FL,29.85326,-84.66435,2729,PPL
Carrollwood,FL,28.05002,-82.49287,33365,PPL
Carrollwood Village,FL,28.06752,-82.52093,40949,PPL
Carver Ranches,FL,25.98842,-80.19227,4406,PPL
Casselberry,FL,28.67778,-81.32785,27056,PPL
Cedar Grove,FL,30.17103,-85.6252,3397,PPL
Cedar Key,FL,29.13858,-83.03512,703,PPL
Celebration,FL,28.32529,-81.53313,7427,PPL
Center Hill,FL,28.64999,-81.99258,1194,PPL
Century,FL,30.97324,-87.26386,1762,PPL
Charlotte Harbor,FL,26.95839,-82.06703,3714,PPL
Charlotte Park,FL,26.91006,-82.05398,2325,PPL
Chattahoochee,FL,30.70546,-84.84574,3144,PPL
Cheval,FL,28.14862,-82.51454,10702,PPL
Chiefland,FL,29.47496,-82.85984,2218,PPL
Chipley,FL,30.78186,-85.53854,3565,PPLA2
Christmas,FL,28.53639,-81.01756,1146,PPL
Chumuckla,FL,30.77658,-87.23719,850,PPL
Chuluota,FL,28.64194,-81.1234,2483,PPL
Citra,FL,29.41192,-82.10982,5732,PPL
Citrus Hills,FL,28.88831,-82.4326,7470,PPL
Citrus Park,FL,28.07835,-82.56982,24252,PPL
Citrus Ridge,FL,28.33385,-81.64232,13285,PPL
Citrus Springs,FL,28.99748,-82.47065,8622,PPL
Clarcona,FL,28.61278,-81.49868,2990,PPL
Clearwater,FL,27.96585,-82.8001,117292,PPLA2
Clermont,FL,28.54944,-81.77285,32390,PPL
Clewiston,FL,26.75423,-80.93368,7505,PPL
Cleveland,FL,26.96173,-81.98398,2990,PPL
Cocoa,FL,28.38612,-80.742,17711,PPL
Cocoa Beach,FL,28.32055,-80.60922,11595,PPL
Coconut Creek,FL,26.25175,-80.17894,59302,PPL
Coconut Grove,FL,25.7126,-80.25699,20076,PPL
Coleman,FL,28.79971,-82.07009,843,PPL
Combee Settlement,FL,28.05835,-81.90536,5577,PPL
Conway,FL,28.50278,-81.33062,13467,PPL
Cooper City,FL,26.05731,-80.27172,35364,PPL
Coral Gables,FL,25.72149,-80.26838,51117,PPL
Coral Springs,FL,26.27119,-80.2706,129485,PPL
Coral Terrace,FL,25.74593,-80.3045,24376,PPL
Cortez,FL,27.46921,-82.68621,4241,PPL
Cottondale,FL,30.79714,-85.3766,900,PPL
Country Walk,FL,25.63399,-80.43228,15997,PPL
Country Club,FL,25.94815,-80.317,47105,PPL
Crawfordville,FL,30.17604,-84.37518,3702,PPLA2
Crescent Beach,FL,29.76886,-81.25368,931,PPL
Crescent City,FL,29.43025,-81.51063,1540,PPL
Crestview,FL,30.76213,-86.57051,23270,PPLA2
Crooked Lake Park,FL,27.82919,-81.58397,1722,PPL
Cross City,FL,29.63465,-83.12694,1707,PPLA2
Crystal Lake,FL,28.03558,-81.90841,5514,PPL
Crystal River,FL,28.90248,-82.5926,3089,PPL
Crystal Springs,FL,28.1814,-82.15758,1327,PPL
Cudjoe Key,FL,24.67153,-81.49842,1763,PPL
Cutler,FL,25.6151,-80.31061,18117,PPL
Cutler Ridge,FL,25.58066,-80.34672,26831,PPL
Cypress Gardens,FL,27.99391,-81.69008,8917,PPL
Cypress Lake,FL,26.53813,-81.89925,11846,PPL
Cypress Quarters,FL,27.25199,-80.81395,1215,PPL
Dade City,FL,28.36472,-82.19592,6955,PPLA2
Dania Beach,FL,26.05231,-80.14393,31446,PPL
Davenport,FL,28.1614,-81.60174,3534,PPL
Davie,FL,26.06287,-80.2331,100882,PPL
Daytona Beach,FL,29.21081,-81.02283,72647,PPL
Daytona Beach Shores,FL,29.17609,-80.98283,4389,PPL
DeFuniak Springs,FL,30.72102,-86.11522,5795,PPLA2
DeLand,FL,29.02832,-81.30312,30195,PPLA2
De Leon Springs,FL,29.11989,-81.35286,2614,PPL
DeBary,FL,28.88305,-81.30868,19998,PPL
Deerfield Beach,FL,26.31841,-80.09977,79768,PPL
Delray Beach,FL,26.46146,-80.07282,66255,PPL
Deltona,FL,28.90054,-81.26367,88474,PPL
Desoto Lakes,FL,27.37143,-82.48982,3646,PPL
Destin,FL,30.39353,-86.49578,13523,PPL
Doctor Phillips,FL,28.44945,-81.49229,10981,PPL
Doral,FL,25.81954,-80.35533,75874,PPL
Dover,FL,27.99419,-82.21953,3702,PPL
Duck Key,FL,24.77097,-80.91201,621,PPL
Dundee,FL,28.02252,-81.61924,4090,PPL
Dunedin,FL,28.0199,-82.77323,36164,PPL
Dunnellon,FL,29.04914,-82.46093,1777,PPL
Eagle Lake,FL,27.97836,-81.75647,2474,PPL
East Lake,FL,28.11085,-82.69482,30962,PPL
East Milton,FL,30.61519,-87.02163,11074,PPL
East Naples,FL,26.13842,-81.76648,22951,PPL
East Palatka,FL,29.6583,-81.59841,1654,PPL
East Pensacola Heights,FL,30.42881,-87.17997,54104,PPL
East Perrine,FL,25.60872,-80.33894,7156,PPL
Eastpoint,FL,29.7366,-84.87852,2337,PPL
Eatonville,FL,28.61472,-81.38062,2271,PPL
Edgewater,FL,28.98888,-80.90228,21566,PPL
Edgewood,FL,28.48612,-81.37229,2795,PPL
Eglin Village,FL,30.46298,-86.5394,7000,PPL
Egypt Lake-Leto,FL,28.01769,-82.50619,35282,PPL
El Portal,FL,25.85537,-80.1931,2491,PPL
Elfers,FL,28.21668,-82.72232,13986,PPL
Ellenton,FL,27.52171,-82.5276,4275,PPL
Eloise,FL,27.99474,-81.73813,23366,PPL
Englewood,FL,26.96201,-82.3526,14863,PPL
Ensley,FL,30.51881,-87.27275,20602,PPL
Estero,FL,26.43814,-81.80675,30799,PPL
Eustis,FL,28.85277,-81.68535,19986,PPL
Fairview Shores,FL,28.59111,-81.39424,10239,PPL
Fanning Springs,FL,29.59079,-82.92929,985,PPL
Feather Sound,FL,27.90079,-82.67349,3420,PPL
Fellsmere,FL,27.76781,-80.60144,5514,PPL
Fern Park,FL,28.64916,-81.35118,7704,PPL
Fernandina Beach,FL,30.66968,-81.46259,12339,PPLA2
Ferry Pass,FL,30.5102,-87.21247,28921,PPL
Fish Hawk,FL,27.85058,-82.21092,14087,PPL
Five Points,FL,30.20912,-82.63735,1265,PPL
Flagami,FL,25.76232,-80.31616,50834,PPL
Flagler Beach,FL,29.47498,-81.127,4869,PPL
Fleming Island,FL,30.0933,-81.71898,27126,PPL
Floral City,FL,28.74999,-82.29676,5217,PPL
Florida City,FL,25.44789,-80.47922,13085,PPL
Florida Ridge,FL,27.58031,-80.38672,18164,PPL
Forest City,FL,28.66678,-81.44334,13854,PPL
Fort Lauderdale,FL,26.12231,-80.14338,183146,PPLA2
Fort Meade,FL,27.75225,-81.80175,5975,PPL
Fort Myers,FL,26.62168,-81.84059,74013,PPLA2
Fort Myers Beach,FL,26.45271,-81.95011,6983,PPL
Fort Myers Shores,FL,26.70924,-81.74592,5487,PPL
Fort Pierce,FL,27.44671,-80.32561,44484,PPLA2
Fort Walton Beach,FL,30.42059,-86.61707,21817,PPL
Fort White,FL,29.92329,-82.71373,566,PPL
Fountainebleau,FL,25.77288,-80.34783,59764,PPL
Freeport,FL,30.49825,-86.13605,2052,PPL
Frostproof,FL,27.74586,-81.53063,3134,PPL
Fruit Cove,FL,30.11107,-81.64176,29362,PPL
Fruitland Park,FL,28.86138,-81.90647,4483,PPL
Fruitville,FL,27.32977,-82.4576,13224,PPL
Fuller Heights,FL,27.90919,-81.99814,8758,PPL
Fussels Corner,FL,28.05419,-81.86064,5561,PPL
Gainesville,FL,29.65163,-82.32483,145214,PPLA2
Gandy,FL,27.8685,-82.61612,2031,PPL
Garden Grove,FL,28.48027,-82.43509,674,PPL
Gateway,FL,26.57757,-81.75036,8401,PPL
Geneva,FL,28.73972,-81.11506,2940,PPL
Gibsonia,FL,28.11474,-81.97369,4571,PPL
Gibsonton,FL,27.85364,-82.38259,14234,PPL
Gifford,FL,27.67531,-80.40922,9590,PPL
Gladeview,FL,25.83926,-80.2356,11535,PPL
Glencoe,FL,29.02582,-80.972,2582,PPL
Glenvar Heights,FL,25.7076,-80.32561,16898,PPL
Golden Beach,FL,25.96509,-80.12227,972,PPL
Golden Gate,FL,26.18787,-81.69509,23961,PPL
Golden Glades,FL,25.91176,-80.20033,33145,PPL
Goldenrod,FL,28.61028,-81.28868,12039,PPL
Gonzalez,FL,30.58158,-87.29136,13273,PPL
Gotha,FL,28.52778,-81.52313,1915,PPL
Goulding,FL,30.44298,-87.22247,4102,PPL
Goulds,FL,25.56261,-80.38228,11446,PPL
Graceville,FL,30.95685,-85.5166,2222,PPL
Grand Ridge,FL,30.71291,-85.02328,872,PPL
Green Cove Springs,FL,29.99191,-81.67815,7277,PPLA2
Greenacres City,FL,26.62368,-80.12532,32963,PPL
Greensboro,FL,30.56961,-84.74527,605,PPL
Greenville,FL,30.46937,-83.63015,803,PPL
Greenwood,FL,30.87019,-85.16187,657,PPL
Gretna,FL,30.61714,-84.65991,1386,PPL
Grove City,FL,26.91423,-82.32704,1804,PPL
Groveland,FL,28.55805,-81.85119,11528,PPL
Gulf Breeze,FL,30.35714,-87.16386,6323,PPL
Gulf Gate Estates,FL,27.25173,-82.51471,10911,PPL
Gulf Stream,FL,26.49368,-80.05504,836,PPL
Gulfport,FL,27.74836,-82.70343,12322,PPL
Gun Club Estates,FL,26.67534,-80.10727,776,PPL
Haines City,FL,28.1145,-81.62009,22807,PPL
Hallandale Beach,FL,25.9812,-80.14838,39488,PPL
Harbor Bluffs,FL,27.90947,-82.8276,2860,PPL
Harbour Heights,FL,26.99089,-82.00231,2987,PPL
Harlem,FL,26.73757,-80.9509,2658,PPL
Harlem Heights,FL,26.51619,-81.92787,1975,PPL
Harold,FL,30.65908,-86.88024,823,PPL
Hastings,FL,29.71802,-81.50813,632,PPL
Havana,FL,30.62381,-84.41463,1688,PPL
Haverhill,FL,26.69118,-80.12004,2025,PPL
Hawthorne,FL,29.59191,-82.08732,1492,PPL
Hawthorne,FL,28.76138,-81.87091,1475,PPL
Heathrow,FL,28.76333,-81.37225,5896,PPL
Hernando,FL,28.89998,-82.37454,9054,PPL
Hernando Beach,FL,28.46944,-82.65927,2299,PPL
Hialeah,FL,25.8576,-80.27811,237069,PPL
Hialeah Gardens,FL,25.8651,-80.3245,23926,PPL
High Springs,FL,29.82691,-82.59678,5831,PPL
Highland Beach,FL,26.39952,-80.0656,3729,PPL
Highland City,FL,27.9653,-81.87786,10834,PPL
Hiland Park,FL,30.20103,-85.62687,1105,PPL
Hill 'n Dale,FL,28.51972,-82.29926,1934,PPL
Hilliard,FL,30.69107,-81.91733,3154,PPL
Hillsboro Beach,FL,26.29397,-80.07893,2004,PPL
Hobe Sound,FL,27.0595,-80.13643,11521,PPL
Holden Heights,FL,28.49667,-81.38785,3679,PPL
Holiday,FL,28.18779,-82.73955,22403,PPL
Holley,FL,30.44686,-86.90691,1630,PPL
Holly Hill,FL,29.24359,-81.03756,11943,PPL
Hollywood,FL,26.0112,-80.14949,149728,PPL
Holmes Beach,FL,27.49532,-82.71093,4199,PPL
Homestead,FL,25.46872,-80.47756,80737,PPL
Homosassa,FL,28.78137,-82.6151,2578,PPL
Homosassa Springs,FL,28.80359,-82.57593,13791,PPL
Hosford,FL,30.38705,-84.79943,650,PPL
Howey-in-the-Hills,FL,28.71694,-81.77341,1098,PPL
Hudson,FL,28.36445,-82.69343,12158,PPL
Hunters Creek,FL,28.36056,-81.42229,14321,PPL
Hypoluxo,FL,26.56646,-80.05337,2719,PPL
Immokalee,FL,26.41869,-81.4173,24154,PPL
Indialantic,FL,28.08946,-80.56561,2837,PPL
Indian Harbour Beach,FL,28.1489,-80.58839,8471,PPL
Indian River Estates,FL,27.36449,-80.30977,6220,PPL
Indian River Shores,FL,27.7167,-80.38422,4156,PPL
Indian Rocks Beach,FL,27.8753,-82.85122,4113,PPL
Indian Shores,FL,27.8628,-82.84844,1470,PPL
Indiantown,FL,27.02728,-80.48561,6083,PPL
Inglis,FL,29.03025,-82.66872,1311,PPL
Interlachen,FL,29.62421,-81.89256,1355,PPL
Inverness,FL,28.83582,-82.33037,7233,PPLA2
Inwood,FL,28.03697,-81.76508,6403,PPL
Iona,FL,26.52036,-81.96398,15369,PPL
Islamorada,FL,24.9243,-80.62784,7131,PPL
Isle of Normandy,FL,25.85287,-80.13505,8841,PPL
Ives Estates,FL,25.96231,-80.17671,19525,PPL
Jacksonville,FL,30.33218,-81.65565,1009833,PPLA2
Jacksonville Beach,FL,30.29469,-81.39314,23064,PPL
Jan-Phyl Village,FL,28.01474,-81.77175,5573,PPL
Jasmine Estates,FL,28.29306,-82.6901,18989,PPL
Jasper,FL,30.51827,-82.94819,4155,PPLA2
Jay,FL,30.95296,-87.15136,578,PPL
Jennings,FL,30.6041,-83.09792,870,PPL
Jensen Beach,FL,27.25449,-80.22977,11707,PPL
June Park,FL,28.07224,-80.68006,4094,PPL
Juno Beach,FL,26.87978,-80.05337,3474,PPL
Juno Ridge,FL,26.84812,-80.06226,718,PPL
Jupiter,FL,26.93422,-80.09421,62707,PPL
Jupiter Island,FL,27.03144,-80.10143,887,PPL
Kathleen,FL,28.12085,-82.02314,6332,PPL
Kendale Lakes,FL,25.70816,-80.407,56148,PPL
Kendall,FL,25.67927,-80.31727,80241,PPL
Kendall Green,FL,26.25397,-80.12393,3048,PPL
Kenneth City,FL,27.81558,-82.7201,5072,PPL
Kensington Park,FL,27.35949,-82.49649,3901,PPL
Key Biscayne,FL,25.69371,-80.16282,12990,PPL
Key Colony Beach,FL,24.72097,-81.01868,851,PPL
Key Largo,FL,25.08652,-80.44728,10433,PPL
Key West,FL,24.55524,-81.78163,25755,PPLA2
Keystone,FL,28.15585,-82.62121,24039,PPL
Keystone Heights,FL,29.78608,-82.03149,1433,PPL
Kings Point,FL,26.44535,-80.13977,12201,PPL
Kissimmee,FL,28.30468,-81.41667,69152,PPLA2
LaBelle,FL,26.76173,-81.43841,4753,PPLA2
Lacoochee,FL,28.46583,-82.17203,1714,PPL
Lady Lake,FL,28.91749,-81.92286,14717,PPL
Laguna Beach,FL,30.23965,-85.9241,3932,PPL
Lake Alfred,FL,28.09196,-81.72341,5475,PPL
Lake Belvedere Estates,FL,26.68923,-80.13338,3334,PPL
Lake Butler,FL,30.02274,-82.33956,1845,PPLA2
Lake Butler,FL,28.50167,-81.54091,15400,PPL
Lake City,FL,30.18968,-82.63929,12161,PPLA2
Lake Clarke Shores,FL,26.64534,-80.07588,3552,PPL
Lake Forest,FL,25.97759,-80.1831,5522,PPL
Lake Hamilton,FL,28.04446,-81.62785,1346,PPL
Lake Hart,FL,28.39278,-81.24062,542,PPL
Lake Helen,FL,28.98082,-81.23339,2687,PPL
Lake Kathryn,FL,29.01526,-81.49146,920,PPL
Lake Lorraine,FL,30.44159,-86.56523,7010,PPL
Lake Lucerne,FL,25.96509,-80.24144,9044,PPL
Lake Magdalene,FL,28.07418,-82.47176,28509,PPL
Lake Panasoffkee,FL,28.777,-82.12,3551,PPL
Lake Park,FL,26.80034,-80.06643,8538,PPL
Lake Placid,FL,27.29834,-81.37124,2164,PPL
Lake Sarasota,FL,27.29255,-82.4376,4679,PPL
Lake Mary,FL,28.75888,-81.31784,16021,PPL
Lake Wales,FL,27.90141,-81.58591,15541,PPL
Lake Worth Beach,FL,26.61708,-80.07231,37498,PPL
Lake Worth Corridor,FL,26.61649,-80.10102,20635,PPL
Lakeland,FL,28.03947,-81.9498,104401,PPL
Lakeland Highlands,FL,27.95975,-81.95008,11056,PPL
Lakes by the Bay,FL,25.57233,-80.32533,11422,PPL
Lakeside,FL,30.12996,-81.76815,30943,PPL
Lakewood Park,FL,27.54309,-80.40227,11323,PPL
Land O' Lakes,FL,28.2189,-82.45759,31996,PPL
Lantana,FL,26.58674,-80.05199,11136,PPL
Largo,FL,27.90979,-82.78842,81000,PPL
Lauderdale Lakes,FL,26.16647,-80.20838,34796,PPL
Lauderdale-by-the-Sea,FL,26.19203,-80.09643,6460,PPL
Lauderhill,FL,26.14036,-80.21338,71579,PPL
Laurel,FL,27.14378,-82.46158,8171,PPL
Laurel Hill,FL,30.96574,-86.45967,582,PPL
Lawtey,FL,30.04413,-82.07177,719,PPL
Lealman,FL,27.82114,-82.67927,19879,PPL
Lecanto,FL,28.85165,-82.4876,5882,PPL
Leesburg,FL,28.81082,-81.87786,21993,PPL
Lehigh Acres,FL,26.62535,-81.6248,86784,PPL
Leisure City,FL,25.49539,-80.42922,26324,PPL
Lely,FL,26.10065,-81.72842,3451,PPL
Lely Resort,FL,26.08093,-81.69786,4646,PPL
Lemon Grove,FL,27.55837,-81.67814,657,PPL
Lighthouse Point,FL,26.27564,-80.08727,11104,PPL
Limestone Creek,FL,26.94284,-80.14115,1014,PPL
Live Oak,FL,30.29495,-82.98402,6931,PPLA2
Lochmoor Waterway Estates,FL,26.64424,-81.90981,4204,PPL
Lockhart,FL,28.61944,-81.44257,13060,PPL
Longboat Key,FL,27.41254,-82.65899,7266,PPL
Longwood,FL,28.70305,-81.3384,14085,PPL
Loughman,FL,28.24196,-81.56674,2680,PPL
Lower Grand Lagoon,FL,30.14409,-85.75076,3881,PPL
Loxahatchee Groves,FL,26.68368,-80.27977,3397,PPL
Lutz,FL,28.15112,-82.46148,19344,PPL
Lynn Haven,FL,30.24548,-85.64826,20156,PPL
Macclenny,FL,30.28218,-82.12206,6487,PPLA2
Madeira Beach,FL,27.79808,-82.79732,4380,PPL
Madison,FL,30.46938,-83.41293,2880,PPLA2
Maitland,FL,28.62778,-81.36312,17463,PPL
Malabar,FL,28.00363,-80.56561,2936,PPL
Malone,FL,30.95769,-85.16215,2145,PPL
Manasota Key,FL,26.92534,-82.35204,1229,PPL
Manatee Road,FL,29.51302,-82.91429,2244,PPL
Mango,FL,27.97974,-82.30648,11313,PPL
Mangonia Park,FL,26.76034,-80.07365,1979,PPL
Marathon,FL,24.71375,-81.09035,8750,PPL
Marco,FL,25.9726,-81.72898,14879,PPL
Marco Island,FL,25.94121,-81.71842,17690,PPL
Margate,FL,26.24453,-80.20644,57234,PPL
Marianna,FL,30.77436,-85.22687,9100,PPLA2
Marion Oaks,FL,29.00859,-82.18315,19034,PPL
Mary Esther,FL,30.41015,-86.66509,4238,PPL
Masaryktown,FL,28.44167,-82.45704,1040,PPL
Mascotte,FL,28.57833,-81.88675,5473,PPL
Mayo,FL,30.053,-83.17486,1237,PPLA2
McGregor,FL,26.56091,-81.91453,7406,PPL
Meadow Woods,FL,28.38556,-81.36646,25558,PPL
Medley,FL,25.84065,-80.32644,851,PPL
Medulla,FL,27.9678,-81.97342,8892,PPL
Melbourne,FL,28.08363,-80.60811,84678,PPL
Melbourne Beach,FL,28.06835,-80.56033,3219,PPL
Melbourne Village,FL,28.08529,-80.66644,691,PPL
Melrose Park,FL,26.11342,-80.19338,7492,PPL
Memphis,FL,27.53587,-82.56121,7848,PPL
Merritt Island,FL,28.359,-80.69,34743,PPL
Mexico Beach,FL,29.94809,-85.41995,1167,PPL
Miami,FL,25.77427,-80.19366,487014,PPLA2
Miami Beach,FL,25.79065,-80.13005,92312,PPL
Miami Gardens,FL,25.97981,-80.20255,2706,PPL
Miami Gardens,FL,25.94204,-80.2456,113187,PPL
Miami Lakes,FL,25.90871,-80.30866,30972,PPL
Miami Shores,FL,25.86315,-80.19283,10831,PPL
Miami Springs,FL,25.82232,-80.2895,14490,PPL
Micanopy,FL,29.50469,-82.27982,630,PPL
Micco,FL,27.88058,-80.50033,9052,PPL
Midway,FL,30.49548,-84.45435,3276,PPL
Midway,FL,28.79027,-81.2309,1705,PPL
Middleburg,FL,30.06885,-81.86038,13008,PPL
Milton,FL,30.63241,-87.03969,9628,PPLA2
Mims,FL,28.66527,-80.84478,7058,PPL
Minneola,FL,28.57444,-81.74619,10735,PPL
Miramar,FL,25.98731,-80.23227,137132,PPL
Miramar Beach,FL,30.37437,-86.35856,6146,PPL
Molino,FL,30.72408,-87.31414,1277,PPL
Monticello,FL,30.54515,-83.8713,2411,PPLA2
Montverde,FL,28.60028,-81.67396,1607,PPL
Moore Haven,FL,26.83312,-81.09312,1794,PPLA2
Mount Dora,FL,28.80249,-81.64452,13519,PPL
Mount Plymouth,FL,28.80805,-81.53313,4011,PPL
Mulberry,FL,27.8953,-81.97342,3976,PPL
Myrtle Grove,FL,30.42103,-87.30747,15870,PPL
Naples,FL,26.14234,-81.79596,21512,PPLA2
Naples Manor,FL,26.0887,-81.7262,5562,PPL
Naples Park,FL,26.26175,-81.80925,5967,PPL
Naranja,FL,25.51816,-80.42283,13509,PPL
Navarre,FL,30.40159,-86.86357,31378,PPL
Neptune Beach,FL,30.31191,-81.39647,7269,PPL
New Port Richey,FL,28.24418,-82.71927,15842,PPL
New Smyrna Beach,FL,29.02582,-80.927,24298,PPL
Newberry,FL,29.64635,-82.6065,5564,PPL
Niceville,FL,30.51686,-86.48217,14714,PPL
Nocatee,FL,27.16033,-81.88231,4524,PPL
Nokomis,FL,27.11922,-82.44426,3167,PPL
Norland,FL,25.94898,-80.21227,23604,PPL
North Andrews Gardens,FL,26.19147,-80.14421,10056,PPL
North Bay Village,FL,25.84621,-80.15394,8302,PPL
North Brooksville,FL,28.57305,-82.40815,3544,PPL
North DeLand,FL,29.04943,-81.29812,1450,PPL
North Fort Myers,FL,26.66729,-81.88009,39407,PPL
North Key Largo,FL,25.26734,-80.32339,1244,PPL
North Lauderdale,FL,26.2173,-80.22588,43703,PPL
North Miami,FL,25.89009,-80.18671,62435,PPL
North Miami Beach,FL,25.93315,-80.16255,43971,PPL
North Palm Beach,FL,26.81756,-80.08199,12015,PPL
North Port,FL,27.04422,-82.23593,62345,PPL
North Redington Beach,FL,27.81614,-82.82066,1463,PPL
North River Shores,FL,27.21755,-80.26977,3079,PPL
North Sarasota,FL,27.37393,-82.51843,6982,PPL
Oak Hill,FL,28.86443,-80.8545,1846,PPL
Oak Ridge,FL,28.47112,-81.42452,22685,PPL
Oakland,FL,28.555,-81.63313,2829,PPL
Oakland Park,FL,26.17231,-80.13199,44319,PPL
Ocala,FL,29.1872,-82.14009,58218,PPLA2
Ocean City,FL,30.44103,-86.61356,5550,PPL
Ocean Ridge,FL,26.52702,-80.04837,1904,PPL
Ocoee,FL,28.56917,-81.54396,43608,PPL
Odessa,FL,28.1939,-82.59176,7267,PPL
Ojus,FL,25.94843,-80.1506,18036,PPL
Okeechobee,FL,27.24393,-80.82978,5608,PPLA2
Oldsmar,FL,28.03418,-82.6651,14170,PPL
Olga,FL,26.71896,-81.7123,1952,PPL
Olympia Heights,FL,25.72677,-80.35533,13488,PPL
Opa-locka,FL,25.90232,-80.25033,16565,PPL
Orange City,FL,28.94888,-81.29867,11210,PPL
Orange Park,FL,30.16607,-81.70648,8702,PPL
Orangetree,FL,26.29286,-81.58842,4406,PPL
Oriole Beach,FL,30.37381,-87.09136,1420,PPL
Orlando,FL,28.53834,-81.37924,334854,PPLA2
Orlovista,FL,28.53834,-81.46035,6123,PPL
Ormond Beach,FL,29.28581,-81.05589,40970,PPL
Ormond-by-the-Sea,FL,29.34914,-81.06645,7406,PPL
Osprey,FL,27.19616,-82.49037,6100,PPL
Oviedo,FL,28.67,-81.20812,38551,PPL
Pace,FL,30.59936,-87.16108,20039,PPL
Page Park,FL,26.57924,-81.86203,514,PPL
Pahokee,FL,26.82006,-80.66534,6071,PPL
Paisley,FL,28.9836,-81.54174,818,PPL
Palatka,FL,29.64858,-81.63758,10390,PPLA2
Palm Aire,FL,26.20619,-80.19171,1702,PPL
Palm Bay,FL,28.03446,-80.58866,119760,PPL
Palm Beach,FL,26.70562,-80.03643,8612,PPL
Palm Beach Gardens,FL,26.82339,-80.13865,52923,PPL
Palm Beach Shores,FL,26.77812,-80.0356,1208,PPL
Palm City,FL,27.16783,-80.26616,23120,PPL
Palm Coast,FL,29.58497,-81.20784,82893,PPL
Palm Harbor,FL,28.07807,-82.76371,57439,PPL
Palm Shores,FL,28.18446,-80.65283,900,PPL
Palm Springs,FL,26.6359,-80.09615,22341,PPL
Palm Springs North,FL,25.9351,-80.33383,5253,PPL
Palm Valley,FL,30.17746,-81.38758,20019,PPL
Palmetto,FL,27.52143,-82.57232,13249,PPL
Palmetto Bay,FL,25.62177,-80.32477,24439,PPL
Palmetto Estates,FL,25.62149,-80.362,13498,PPL
Palmona Park,FL,26.68646,-81.89648,1146,PPL
Panacea,FL,30.03743,-84.38768,816,PPL
Panama City,FL,30.15946,-85.65983,38286,PPLA2
Panama City Beach,FL,30.17659,-85.80549,12624,PPL
Paradise Heights,FL,28.62361,-81.54396,1215,PPL
Parker,FL,30.13104,-85.60326,4603,PPL
Parkland,FL,26.31008,-80.23727,30177,PPL
Paxton,FL,30.9818,-86.30855,749,PPL
Pebble Creek,FL,28.14835,-82.34565,7622,PPL
Pelican Bay,FL,26.2312,-81.80564,6346,PPL
Pembroke Park,FL,25.98787,-80.17477,6333,PPL
Pembroke Pines,FL,26.00315,-80.22394,166611,PPL
Penney Farms,FL,29.97969,-81.81037,815,PPL
Pensacola,FL,30.42131,-87.21691,53724,PPLA2
Perry,FL,30.11766,-83.58274,7055,PPLA2
Pierson,FL,29.23942,-81.46563,1772,PPL
Pine Castle,FL,28.47195,-81.36785,10805,PPL
Pine Hills,FL,28.55778,-81.4534,60076,PPL
Pine Island Center,FL,26.61369,-82.11815,1854,PPL
Pine Island Ridge,FL,26.09481,-80.27394,5218,PPL
Pine Lakes,FL,28.9411,-81.43007,862,PPL
Pine Manor,FL,26.57285,-81.87814,3428,PPL
Pine Ridge,FL,28.93831,-82.47343,9598,PPL
Pine Ridge,FL,26.23064,-81.79592,1918,PPL
Pinecrest,FL,25.66705,-80.30811,19452,PPL
Pinellas Park,FL,27.8428,-82.69954,51617,PPL
Pinewood,FL,25.86898,-80.21699,16520,PPL
Placid Lakes,FL,27.24144,-81.40702,3716,PPL
Plant City,FL,28.01888,-82.11469,37406,PPL
Plantation,FL,26.13421,-80.23184,92560,PPL
Plantation,FL,24.97624,-80.55228,1885,PPL
Plantation,FL,27.06811,-82.37287,4919,PPL
Plantation Mobile Home Park,FL,26.70312,-80.13227,1260,PPLX
Poinciana,FL,28.14029,-81.45841,53193,PPL
Point Baker,FL,30.69019,-87.05358,2991,PPL
Polk City,FL,28.18251,-81.82397,1907,PPL
Pomona Park,FL,29.50025,-81.59147,879,PPL
Pompano Beach,FL,26.23786,-80.12477,107762,PPL
Pompano Beach Highlands,FL,26.28286,-80.10699,7192,PPL
Ponce Inlet,FL,29.09637,-80.937,3157,PPL
Ponce de Leon,FL,30.72297,-85.93744,549,PPL
Ponte Vedra Beach,FL,30.23969,-81.38564,35400,PPL
Port Charlotte,FL,26.97617,-82.09064,54392,PPL
Port LaBelle,FL,26.75645,-81.40508,3530,PPL
Port Orange,FL,29.13832,-80.99561,59866,PPL
Port Richey,FL,28.27168,-82.71955,2761,PPL
Port Saint Joe,FL,29.81188,-85.30297,3445,PPLA2
Port Saint John,FL,28.47695,-80.78867,12267,PPL
Port Saint Lucie,FL,27.29393,-80.35033,164603,PPL
Port Salerno,FL,27.14422,-80.2006,10091,PPL
Pretty Bayou,FL,30.19659,-85.6966,3206,PPL
Princeton,FL,25.53844,-80.40894,39308,PPL
Progress Village,FL,27.9003,-82.36454,5392,PPL
Punta Gorda,FL,26.92978,-82.04537,18150,PPLA2
Punta Gorda Isles,FL,26.91756,-82.07842,18306,PPL
Punta Rassa,FL,26.48786,-82.01231,1750,PPL
Quincy,FL,30.58714,-84.58325,7830,PPLA2
Reddick,FL,29.36664,-82.19732,518,PPL
Redington Beach,FL,27.80864,-82.81121,1471,PPL
Redington Shores,FL,27.82614,-82.82899,2205,PPL
Richmond Heights,FL,25.63149,-80.36894,8541,PPL
Richmond West,FL,25.6105,-80.42971,35884,PPL
Ridge Manor,FL,28.5075,-82.17036,4513,PPL
Ridge Wood Heights,FL,27.28727,-82.51315,4795,PPL
Ridgecrest,FL,27.8975,-82.80529,2558,PPL
Rio,FL,27.21949,-80.23921,965,PPL
River Park,FL,27.31421,-80.34727,5222,PPL
Riverview,FL,27.86614,-82.32648,71050,PPL
Riviera Beach,FL,26.77534,-80.0581,34005,PPL
Rock Island,FL,26.15509,-80.17699,3076,PPL
Rockledge,FL,28.35084,-80.72533,24926,PPL
Roeville,FL,30.67686,-86.99358,608,PPL
Roseland,FL,27.83586,-80.49311,1472,PPL
Rotonda West,FL,26.88368,-82.29009,8759,PPL
Royal Palm Beach,FL,26.7084,-80.2306,37633,PPL
Royal Palm Estates,FL,26.681,-80.133,3025,PPL
Ruskin,FL,27.72086,-82.43315,17208,PPL
Safety Harbor,FL,27.99085,-82.69316,17454,PPL
Saint Augustine,FL,29.89469,-81.31452,12975,PPLA2
Saint Augustine Beach,FL,29.85053,-81.26535,6176,PPL
Saint Augustine Shores,FL,29.8108,-81.31035,7359,PPL
Saint Cloud,FL,28.2489,-81.28118,35183,PPL
Saint George,FL,28.05641,-82.72788,2709,PPL
Saint James City,FL,26.49758,-82.07843,3784,PPL
Saint Leo,FL,28.33723,-82.25842,1340,PPL
Saint Lucie,FL,27.48948,-80.33977,590,PPL
Saint Pete Beach,FL,27.72531,-82.74121,9346,PPL
St. Petersburg,FL,27.77086,-82.67927,257083,PPL
Samoset,FL,27.46948,-82.54149,3854,PPL
San Antonio,FL,28.33611,-82.27453,1308,PPL
San Carlos Park,FL,26.4673,-81.80147,16824,PPL
Sanibel,FL,26.44897,-82.02231,7236,PPL
Sanford,FL,28.80055,-81.27312,58111,PPLA2
Santa Rosa Beach,FL,30.39603,-86.22883,32459,PPL
Sarasota,FL,27.33643,-82.53065,55118,PPLA2
Sarasota Springs,FL,27.30894,-82.47954,14395,PPL
Satellite Beach,FL,28.17612,-80.59005,10633,PPL
Sawgrass,FL,30.19274,-81.37064,4880,PPL
Schall Circle,FL,26.71562,-80.11504,1117,PPL
Scott Lake,FL,25.94148,-80.23199,14425,PPL
Sea Ranch Lakes,FL,26.20258,-80.09393,670,PPL
Seaside,FL,30.32103,-86.14161,2000,PPL
Sebastian,FL,27.81641,-80.47061,24007,PPL
Sebring,FL,27.49559,-81.44091,10497,PPLA2
Seffner,FL,27.98363,-82.27565,7579,PPL
Seminole,FL,27.83975,-82.79121,18153,PPL
Seminole Manor,FL,26.58368,-80.10032,2621,PPL
Seville,FL,29.31692,-81.49257,614,PPL
Sewall's Point,FL,27.19949,-80.20227,2149,PPL
Shady Hills,FL,28.41,-82.54288,11523,PPL
Shalimar,FL,30.44575,-86.57912,796,PPL
Sharpes,FL,28.43223,-80.76005,3411,PPL
Siesta Key,FL,27.26785,-82.54526,6565,PPL
Silver Lake,FL,28.84193,-81.79841,1879,PPL
Silver Springs,FL,29.21664,-82.05759,10334,PPL
Silver Springs Shores,FL,29.10442,-82.02064,6539,PPL
Sky Lake,FL,28.45723,-81.39146,6153,PPL
Sneads,FL,30.70801,-84.92552,1776,PPL
Solana,FL,26.94701,-82.02592,742,PPL
Sorrento,FL,28.80777,-81.56368,861,PPL
South Bay,FL,26.66396,-80.71617,5101,PPL
South Beach,FL,27.59115,-80.34422,3501,PPL
South Bradenton,FL,27.4631,-82.58176,22178,PPL
South Apopka,FL,28.66194,-81.50952,5728,PPL
South Brooksville,FL,28.53582,-82.38403,4007,PPL
South Daytona,FL,29.16582,-81.0045,12584,PPL
South Gate Ridge,FL,27.28644,-82.49676,5688,PPL
South Highpoint,FL,27.91697,-82.71288,5195,PPL
South Miami,FL,25.7076,-80.29338,12242,PPL
South Miami Heights,FL,25.59761,-80.38061,36770,PPL
South Palm Beach,FL,26.58896,-80.03865,1424,PPL
South Pasadena,FL,27.75503,-82.7376,5081,PPL
South Patrick Shores,FL,28.20223,-80.6095,5875,PPL
South Sarasota,FL,27.28616,-82.53288,4950,PPL
South Venice,FL,27.05311,-82.42426,13949,PPL
Southchase,FL,28.39306,-81.3834,15921,PPL
Southgate,FL,27.3081,-82.50982,7173,PPL
Southwest Ranches,FL,26.0587,-80.33727,7852,PPL
Spring Hill,FL,28.47688,-82.52546,98621,PPL
Springfield,FL,30.15326,-85.61132,9442,PPL
Stacey Street,FL,26.6984,-80.12365,858,PPL
Starke,FL,29.94413,-82.10983,5397,PPLA2
Steinhatchee,FL,29.67106,-83.38764,1047,PPL
Stock Island,FL,24.56709,-81.73842,3919,PPL
Stuart,FL,27.19755,-80.25283,16462,PPLA2
Sugarmill Woods,FL,28.73221,-82.50621,8287,PPL
Sun City Center,FL,27.71809,-82.35176,19258,PPL
Suncoast Estates,FL,26.71174,-81.86897,4384,PPL
Sunny Isles Beach,FL,25.95065,-80.12282,22123,PPL
Sunrise,FL,26.13397,-80.1131,84439,PPL
Sunset,FL,25.70594,-80.35228,16389,PPL
Sunshine Ranches,FL,26.04592,-80.32894,1884,PPL
Surfside,FL,25.87843,-80.1256,6024,PPL
Sweetwater,FL,25.76343,-80.37311,20840,PPL
Taft,FL,28.42973,-81.36507,2205,PPL
Tallahassee,FL,30.43826,-84.28073,201731,PPLA
Tamarac,FL,26.21286,-80.24977,64681,PPL
Tamiami,FL,25.75871,-80.39839,55271,PPL
Tampa,FL,27.94752,-82.45843,414547,PPLA2
Tangelo Park,FL,28.45584,-81.4459,2231,PPL
Tangerine,FL,28.76499,-81.63063,2865,PPL
Tarpon Springs,FL,28.14612,-82.75677,24605,PPL
Tavares,FL,28.80416,-81.72563,15430,PPLA2
Tavernier,FL,25.01152,-80.51506,2136,PPL
Taylor Creek,FL,27.21671,-80.7895,4348,PPL
Tedder,FL,26.28425,-80.12227,2299,PPL
Temple Terrace,FL,28.0353,-82.38926,25731,PPL
Tequesta,FL,26.959,-80.088,5629,PPL
Terra Mar,FL,26.21619,-80.09532,2909,PPL
The Crossings,FL,25.67066,-80.40117,22758,PPL
The Hammocks,FL,25.67149,-80.4445,51003,PPL
The Meadows,FL,27.36171,-82.46898,3994,PPL
The Villages,FL,28.93408,-81.95994,51442,PPL
Thonotosassa,FL,28.06141,-82.30231,13014,PPL
Three Lakes,FL,25.64205,-80.39839,15047,PPL
Three Oaks,FL,26.47008,-81.79397,3592,PPL
Tice,FL,26.67479,-81.81508,4470,PPL
Tierra Verde,FL,27.69197,-82.72343,3721,PPL
Tiger Point,FL,30.37853,-87.05552,3090,PPL
Tildenville,FL,28.542,-81.604,511,PPL
Timber Pines,FL,28.47028,-82.60316,5386,PPL
Titusville,FL,28.61222,-80.80755,45393,PPLA2
Town 'n' Country,FL,28.01057,-82.57732,78442,PPL
Treasure Island,FL,27.76919,-82.76899,6887,PPL
Trenton,FL,29.61329,-82.81762,2066,PPLA2
Twin Lakes,FL,26.18092,-80.16005,2073,PPL
Umatilla,FL,28.92943,-81.66563,3702,PPL
Union Park,FL,28.56806,-81.28618,9765,PPL
University Park,FL,25.74649,-80.36755,26995,PPL
Upper Grand Lagoon,FL,30.16326,-85.74076,13963,PPL
Utopia,FL,27.29005,-82.36009,732,PPL
Valparaiso,FL,30.50853,-86.50273,5023,PPL
Valrico,FL,27.93789,-82.23644,35545,PPL
Vamo,FL,27.222,-82.49787,4727,PPL
Venice,FL,27.09978,-82.45426,22211,PPL
Venice Gardens,FL,27.07311,-82.4076,7104,PPL
Vernon,FL,30.62297,-85.71215,679,PPL
Vero Beach,FL,27.63864,-80.39727,16358,PPLA2
Villages of Oriole,FL,26.4623,-80.15282,4755,PPL
Villano Beach,FL,29.93858,-81.30202,2678,PPL
Vineyards,FL,26.22373,-81.72798,3375,PPL
Virginia Gardens,FL,25.81038,-80.30227,2487,PPL
Wabasso,FL,27.74836,-80.43616,609,PPL
Wabasso Beach,FL,27.76475,-80.39894,1853,PPL
Wahneta,FL,27.9528,-81.72702,5091,PPL
Waldo,FL,29.78969,-82.16732,1030,PPL
Wallace,FL,30.67741,-87.17997,1785,PPL
Warm Mineral Springs,FL,27.05978,-82.26009,5061,PPL
Warrington,FL,30.38409,-87.27497,14531,PPL
Washington Park,FL,26.13259,-80.18116,1672,PPL
Watertown,FL,30.19245,-82.61457,2829,PPL
Wauchula,FL,27.54726,-81.81147,4935,PPLA2
Waverly,FL,27.97891,-81.61397,767,PPL
Webster,FL,28.60999,-82.05508,995,PPL
Wedgefield,FL,28.48778,-81.07729,6705,PPL
Weeki Wachee Gardens,FL,28.53361,-82.62954,1146,PPL
Wekiwa Springs,FL,28.69861,-81.42563,21998,PPL
Welaka,FL,29.47914,-81.67147,681,PPL
Wellborn,FL,30.23106,-82.81957,2724,PPL
Wellington,FL,26.65868,-80.24144,62560,PPL
Wesley Chapel,FL,28.23973,-82.32787,44092,PPL
West Bradenton,FL,27.50254,-82.61399,4192,PPL
Westchase,FL,28.05502,-82.60982,21747,PPL
West DeLand,FL,29.01582,-81.33312,3535,PPL
West Gate,FL,26.70257,-80.0981,7975,PPL
West Hollywood,FL,26.02065,-80.18394,60806,PPLX
West Little River,FL,25.85704,-80.23699,34699,PPL
West Melbourne,FL,28.07168,-80.65339,20679,PPL
West Miami,FL,25.76343,-80.29616,5965,PPL
West Palm Beach,FL,26.71534,-80.05337,120932,PPLA2
West Park,FL,25.98454,-80.19894,15097,PPL
West Pensacola,FL,30.42659,-87.27969,21339,PPL
West Perrine,FL,25.60594,-80.36283,10602,PPL
West Samoset,FL,27.46948,-82.55676,5583,PPL
West Vero Corridor,FL,27.63775,-80.48576,7138,PPL
West and East Lealman,FL,27.81993,-82.68944,21924,PPL
Westchester,FL,25.75482,-80.32727,29862,PPL
Weston,FL,26.10037,-80.39977,69959,PPL
Westview,FL,25.88204,-80.24199,9650,PPL
Westwood Lake,FL,25.72927,-80.37283,11838,PPL
Wewahitchka,FL,30.1127,-85.20047,1995,PPL
Whiskey Creek,FL,26.57258,-81.89009,4655,PPL
White City,FL,27.37393,-80.33394,3719,PPL
White Springs,FL,30.32967,-82.75902,773,PPL
Whitfield,FL,27.41171,-82.56593,2882,PPL
Wildwood,FL,28.86542,-82.04058,6590,PPL
Williamsburg,FL,28.41445,-81.44285,7646,PPL
Williston,FL,29.38747,-82.44677,2746,PPL
Williston Highlands,FL,29.34052,-82.5415,2275,PPL
Willow Oak,FL,27.91614,-82.01786,6732,PPL
Wilton Manors,FL,26.16036,-80.13893,12385,PPL
Wimauma,FL,27.71253,-82.29898,6373,PPL
Windermere,FL,28.49556,-81.5348,3249,PPL
Winston,FL,28.03169,-82.01481,9050,PPL
Winter Beach,FL,27.7192,-80.42061,2067,PPL
Winter Garden,FL,28.56528,-81.58618,40356,PPL
Winter Haven,FL,28.02224,-81.73286,37689,PPL
Winter Park,FL,28.6,-81.33924,29943,PPL
Winter Springs,FL,28.69889,-81.30812,34789,PPL
Wiscon,FL,28.54083,-82.46204,706,PPL
Woodlawn Beach,FL,30.38825,-86.9908,1785,PPL
Woodville,FL,30.31409,-84.2474,2978,PPL
Wright,FL,30.45575,-86.63829,23127,PPL
Yalaha,FL,28.7386,-81.80869,1364,PPL
Yankeetown,FL,29.02997,-82.71594,501,PPL
Youngstown,FL,30.36436,-85.43826,4324,PPL
Yulee,FL,30.6319,-81.60649,11491,PPL
Zellwood,FL,28.73111,-81.60118,2817,PPL
Zephyrhills,FL,28.23362,-82.18119,14611,PPL
Zolfo Springs,FL,27.49337,-81.79592,1803,PPL
Abbeville,GA,31.99212,-83.30682,2815,PPLA2
Acworth,GA,34.06635,-84.67837,22131,PPL
Adairsville,GA,34.3687,-84.93411,4778,PPL
Adel,GA,31.13727,-83.42408,5316,PPLA2
Adrian,GA,32.53072,-82.5893,657,PPL
Ailey,GA,32.1874,-82.56569,552,PPL
Alamo,GA,32.14712,-82.77792,3330,PPLA2
Alapaha,GA,31.3852,-83.22293,656,PPL
Albany,GA,31.57851,-84.15574,74843,PPLA2
Allenhurst,GA,31.7841,-81.60761,665,PPL
Alma,GA,31.53937,-82.46236,3536,PPLA2
Alpharetta,GA,34.07538,-84.29409,63693,PPL
Alto,GA,34.46732,-83.57378,1167,PPL
Americus,GA,32.07239,-84.23269,16028,PPLA2
Appling,GA,33.54608,-82.3173,0,PPLA2
Arabi,GA,31.83157,-83.73795,563,PPL
Aragon,GA,34.04565,-85.05606,1243,PPL
Arcade,GA,34.07789,-83.56155,1799,PPL
Arlington,GA,31.4399,-84.72492,1406,PPL
Ashburn,GA,31.70601,-83.65322,3820,PPLA2
Athens,GA,33.96095,-83.37794,127315,PPLA2
Atlanta,GA,33.749,-84.38798,510823,PPLA
Auburn,GA,34.01372,-83.82768,7524,PPL
Augusta,GA,33.47097,-81.97484,43459,PPLA2
Austell,GA,33.81261,-84.63438,7107,PPL
Avondale Estates,GA,33.77149,-84.26714,3139,PPL
Baconton,GA,31.37962,-84.16102,871,PPL
Bainbridge,GA,30.9038,-84.57547,12507,PPLA2
Baldwin,GA,34.49177,-83.53739,3286,PPL
Ball Ground,GA,34.33815,-84.37659,1720,PPL
Barnesville,GA,33.05457,-84.15575,6625,PPLA2
Baxley,GA,31.77825,-82.34846,4440,PPLA2
Belvedere Park,GA,33.75483,-84.26742,15152,PPL
Berkeley Lake,GA,33.98371,-84.18658,2024,PPL
Berlin,GA,31.06824,-83.62378,559,PPL
Bethlehem,GA,33.93206,-83.71378,671,PPL
Bibb City,GA,32.4957,-84.99188,506,PPL
Blackshear,GA,31.30605,-82.24207,3581,PPLA2
Blairsville,GA,34.8762,-83.95824,554,PPLA2
Blakely,GA,31.37768,-84.93409,4871,PPLA2
Bloomingdale,GA,32.13242,-81.299,2764,PPL
Blue Ridge,GA,34.86397,-84.32409,1286,PPLA2
Blythe,GA,33.29264,-82.20151,701,PPL
Bogart,GA,33.94928,-83.53461,1042,PPL
Bonanza,GA,33.46567,-84.33659,3135,PPL
Boston,GA,30.79186,-83.78989,1323,PPL
Bowdon,GA,33.53789,-85.25328,2072,PPL
Bowman,GA,34.20483,-83.0307,820,PPL
Braselton,GA,34.10927,-83.76267,9476,PPL
Bremen,GA,33.72122,-85.1455,6355,PPL
Brookhaven,GA,33.85844,-84.3402,51910,PPL
Brooklet,GA,32.37963,-81.66317,1457,PPL
Brooks,GA,33.29095,-84.45937,547,PPL
Broxton,GA,31.62519,-82.88681,1190,PPL
Brunswick,GA,31.15013,-81.49147,16157,PPLA2
Buchanan,GA,33.8026,-85.18856,1156,PPLA2
Buena Vista,GA,32.31904,-84.51714,2206,PPLA2
Buford,GA,34.12066,-84.00435,13748,PPL
Butler,GA,32.55709,-84.23825,1885,PPLA2
Byromville,GA,32.20211,-83.90851,520,PPL
Byron,GA,32.65376,-83.75963,5105,PPL
Cadwell,GA,32.33962,-83.04209,530,PPL
Cairo,GA,30.87751,-84.20214,9752,PPLA2
Calhoun,GA,34.50259,-84.95105,16309,PPLA2
Camilla,GA,31.23129,-84.21046,5089,PPLA2
Canon,GA,34.34622,-83.10987,803,PPL
Canton,GA,34.23676,-84.49076,25469,PPLA2
Carnesville,GA,34.36983,-83.23516,580,PPLA2
Carrollton,GA,33.58011,-85.07661,26203,PPLA2
Cartersville,GA,34.16533,-84.80231,20319,PPLA2
Cave Spring,GA,34.1076,-85.33634,1175,PPL
Cedartown,GA,34.01123,-85.25593,9750,PPLA2
Centerville,GA,32.63014,-83.68963,7575,PPL
Chamblee,GA,33.89205,-84.29881,28244,PPL
Chatsworth,GA,34.76591,-84.76994,4351,PPLA2
Chattanooga Valley,GA,34.93285,-85.35551,3846,PPL
Chester,GA,32.39378,-83.15293,1568,PPL
Chickamauga,GA,34.87119,-85.29079,3107,PPL
Clarkesville,GA,34.6126,-83.52489,1746,PPLA2
Clarkston,GA,33.80955,-84.23964,12215,PPL
Claxton,GA,32.16158,-81.904,2334,PPLA2
Clayton,GA,34.87815,-83.40099,2234,PPLA2
Clermont,GA,34.47788,-83.77351,922,PPL
Cleveland,GA,34.59704,-83.76324,3773,PPLA2
Cochran,GA,32.38683,-83.35461,4363,PPLA2
Cohutta,GA,34.95952,-84.95272,637,PPL
Colbert,GA,34.03789,-83.21265,600,PPL
College Park,GA,33.65344,-84.44937,14601,PPL
Collins,GA,32.1813,-82.10901,582,PPL
Colquitt,GA,31.17129,-84.73325,1886,PPLA2
Columbus,GA,32.46098,-84.98771,206922,PPLA2
Comer,GA,34.06372,-83.12543,1138,PPL
Commerce,GA,34.204,-83.45711,6762,PPL
Conley,GA,33.64483,-84.32576,6228,PPL
Conyers,GA,33.66761,-84.01769,15875,PPLA2
Coolidge,GA,31.0113,-83.86628,526,PPL
Cordele,GA,31.96351,-83.78239,10943,PPLA2
Cornelia,GA,34.51149,-83.52712,4223,PPL
Country Club Estates,GA,33.98928,-83.4096,7555,PPL
Country Club Estates,GA,31.21273,-81.46427,8545,PPL
Covington,GA,33.59678,-83.86018,13916,PPLA2
Crawford,GA,33.8829,-83.1546,826,PPL
Crawfordville,GA,33.55402,-82.89598,508,PPLA2
Cumming,GA,34.20732,-84.14019,5718,PPLA2
Cusseta,GA,32.30543,-84.7727,11267,PPLA2
Cuthbert,GA,31.77127,-84.78937,3670,PPLA2
Dacula,GA,33.98872,-83.89796,5330,PPL
Dahlonega,GA,34.53259,-83.98491,6394,PPLA2
Dalton,GA,34.7698,-84.97022,33853,PPLA2
Dallas,GA,33.92371,-84.84077,12870,PPLA2
Danielsville,GA,34.12428,-83.22126,577,PPLA2
Darien,GA,31.37023,-81.43399,1858,PPL
Dasher,GA,30.74743,-83.2207,963,PPL
Davisboro,GA,32.97904,-82.60791,1986,PPL
Dawson,GA,31.77382,-84.448,4353,PPLA2
Dawsonville,GA,34.42121,-84.11908,2525,PPLA2
Dearing,GA,33.41319,-82.38513,547,PPL
Decatur,GA,33.77483,-84.29631,21957,PPLA2
Deenwood,GA,31.235,-82.375,2146,PPL
Demorest,GA,34.5651,-83.54517,2050,PPL
Dexter,GA,32.43239,-83.06126,570,PPL
Dock Junction,GA,31.20245,-81.51677,7721,PPL
Doerun,GA,31.31963,-83.91712,773,PPL
Donalsonville,GA,31.04046,-84.87909,2675,PPLA2
Doraville,GA,33.89816,-84.28326,10896,PPL
Douglas,GA,31.50881,-82.84987,11718,PPLA2
Douglasville,GA,33.7515,-84.74771,32897,PPLA2
Druid Hills,GA,33.78038,-84.33604,14568,PPL
Dublin,GA,32.54044,-82.90375,16197,PPLA2
Dudley,GA,32.54239,-83.07043,570,PPL
Duluth,GA,34.00288,-84.14464,29193,PPL
Dunwoody,GA,33.94621,-84.33465,48733,PPL
East Dublin,GA,32.54822,-82.87181,2392,PPL
East Ellijay,GA,34.68397,-84.4727,556,PPL
East Griffin,GA,33.24373,-84.22881,1451,PPL
East Point,GA,33.67955,-84.43937,35467,PPL
East Newnan,GA,33.35067,-84.7766,1321,PPL
Eastman,GA,32.19767,-83.17765,5285,PPLA2
Eatonton,GA,33.3268,-83.3885,6520,PPLA2
Edison,GA,31.55823,-84.73825,1478,PPL
Elberton,GA,34.11159,-82.86863,4453,PPLA2
Ellaville,GA,32.23821,-84.30908,1879,PPLA2
Ellijay,GA,34.69481,-84.48215,1680,PPLA2
Emerson,GA,34.12704,-84.75549,1535,PPL
Enigma,GA,31.41297,-83.32905,1293,PPL
Eton,GA,34.82508,-84.76327,902,PPL
Euharlee,GA,34.14482,-84.933,4261,PPL
Evans,GA,33.53375,-82.13067,29011,PPL
Experiment,GA,33.26539,-84.28159,2894,PPL
Fair Oaks,GA,33.91649,-84.54465,8225,PPL
Fairburn,GA,33.56706,-84.58104,13967,PPL
Fairmount,GA,34.4362,-84.69993,736,PPL
Fairview,GA,34.94563,-85.2844,6769,PPL
Fayetteville,GA,33.44873,-84.45493,16990,PPLA2
Fitzgerald,GA,31.71491,-83.25265,9013,PPLA2
Flemington,GA,31.85965,-81.564,718,PPL
Flovilla,GA,33.25373,-83.89852,634,PPL
Flowery Branch,GA,34.1851,-83.92518,6683,PPL
Folkston,GA,30.83095,-82.01131,5247,PPLA2
Forest Park,GA,33.62205,-84.36909,19383,PPL
Forsyth,GA,33.0343,-83.93824,4013,PPLA2
Fort Gaines,GA,31.60924,-85.04933,1129,PPLA2
Fort Oglethorpe,GA,34.94896,-85.2569,9803,PPL
Fort Valley,GA,32.55376,-83.88741,8597,PPLA2
Franklin,GA,33.27762,-85.098,969,PPLA2
Franklin Springs,GA,34.28483,-83.14432,1154,PPL
Gainesville,GA,34.29788,-83.82407,38712,PPLA2
Garden City,GA,32.11437,-81.154,8999,PPL
Georgetown,GA,31.98326,-81.22733,11823,PPL
Georgetown,GA,31.88461,-85.10743,973,PPLA2
Gibson,GA,33.23348,-82.59541,657,PPLA2
Glennville,GA,31.93659,-81.92845,5086,PPL
Glenwood,GA,32.1799,-82.66958,739,PPL
Gordon,GA,32.88209,-83.33238,1956,PPL
Grantville,GA,33.23484,-84.83577,3183,PPL
Gray,GA,33.00958,-83.53378,3269,PPLA2
Grayson,GA,33.89427,-83.95574,3147,PPL
Greensboro,GA,33.57568,-83.18238,3403,PPLA2
Greenville,GA,33.02874,-84.71298,862,PPLA2
Gresham Park,GA,33.70344,-84.31437,7432,PPL
Griffin,GA,33.24678,-84.26409,23211,PPLA2
Grovetown,GA,33.45042,-82.19818,13093,PPL
Gumlog,GA,34.49177,-83.09654,2146,PPL
Guyton,GA,32.3363,-81.3915,1856,PPL
Hagan,GA,32.15603,-81.93373,967,PPL
Hahira,GA,30.99131,-83.37266,2899,PPL
Hamilton,GA,32.75791,-84.87493,1158,PPLA2
Hampton,GA,33.38706,-84.28298,7372,PPL
Hannahs Mill,GA,32.93291,-84.34936,3298,PPL
Hapeville,GA,33.66011,-84.4102,6650,PPL
Hardwick,GA,33.0682,-83.22349,3930,PPL
Harlem,GA,33.41458,-82.31262,2967,PPL
Hartwell,GA,34.35288,-82.93209,4514,PPLA2
Hawkinsville,GA,32.28377,-83.47212,5471,PPLA2
Hazlehurst,GA,31.86963,-82.5943,4196,PPLA2
Helen,GA,34.70148,-83.73157,532,PPL
Helena,GA,32.07379,-82.91459,2883,PPL
Hephzibah,GA,33.31403,-82.09679,3936,PPL
Hiawassee,GA,34.94926,-83.75739,906,PPLA2
Hinesville,GA,31.84688,-81.59595,33398,PPLA2
Hiram,GA,33.87566,-84.76216,3792,PPL
Hoboken,GA,31.18106,-82.13484,531,PPL
Hogansville,GA,33.17318,-84.91494,3110,PPL
Holly Springs,GA,34.17399,-84.50132,10719,PPL
Homeland,GA,30.85637,-82.02264,871,PPL
Homer,GA,34.33372,-83.49905,1144,PPLA2
Homerville,GA,31.0366,-82.74708,2480,PPLA2
Hoschton,GA,34.0965,-83.76128,1433,PPL
Indian Springs,GA,33.24262,-83.92074,2413,PPL
Indian Springs,GA,34.95785,-85.1644,2241,PPL
Irondale,GA,33.48067,-84.35881,7446,PPL
Irwinton,GA,32.81126,-83.17265,562,PPLA2
Isle of Hope,GA,31.98188,-81.06094,2402,PPL
Ivey,GA,32.90709,-83.29071,926,PPL
Jackson,GA,33.29457,-83.96602,4983,PPLA2
Jasper,GA,34.46787,-84.42909,3762,PPLA2
Jefferson,GA,34.11705,-83.57239,10195,PPLA2
Jefferson,GA,33.4493,-83.31155,4411,PPL
Jeffersonville,GA,32.68765,-83.34656,1050,PPLA2
Jekyll Island,GA,31.07021,-81.42272,866,PPL
Jesup,GA,31.60785,-81.88634,9633,PPL
Jonesboro,GA,33.5215,-84.35381,4746,PPLA2
Kennesaw,GA,34.02343,-84.61549,33584,PPL
Kingsland,GA,30.79996,-81.68983,16487,PPL
Kingston,GA,34.23704,-84.94411,654,PPL
Kingston,GA,33.48014,-82.07901,666,PPL
Knoxville,GA,32.72431,-83.99769,69,PPLA2
LaGrange,GA,33.03929,-85.03133,29588,PPL
LaFayette,GA,34.7048,-85.2819,7173,PPLA2
Lake City,GA,33.6065,-84.3352,2727,PPL
Lake Park,GA,30.68215,-83.17959,730,PPL
Lakeland,GA,31.04104,-83.07515,3322,PPLA2
Lakeview,GA,34.97924,-85.25884,4839,PPL
Lakeview Estates,GA,33.70678,-84.03158,2695,PPL
Lavonia,GA,34.43594,-83.10682,2165,PPL
Lawrenceville,GA,33.95621,-83.98796,30493,PPLA2
Leary,GA,31.48573,-84.5138,589,PPL
Leesburg,GA,31.73212,-84.17074,2983,PPLA2
Lexington,GA,33.86984,-83.11182,227,PPLA2
Lilburn,GA,33.8901,-84.14297,12655,PPL
Lincoln Park,GA,32.86791,-84.33047,833,PPL
Lincolnton,GA,33.79235,-82.47902,1479,PPLA2
Lindale,GA,34.18676,-85.17467,4191,PPL
Lithia Springs,GA,33.794,-84.66049,15491,PPL
Lithonia,GA,33.71233,-84.10519,2022,PPL
Locust Grove,GA,33.34595,-84.10908,5790,PPL
Loganville,GA,33.839,-83.90074,11248,PPL
Lookout Mountain,GA,34.97758,-85.35774,1579,PPL
Louisville,GA,33.00154,-82.41124,2358,PPLA2
Lovejoy,GA,33.43622,-84.31437,6487,PPL
Ludowici,GA,31.70799,-81.74234,2081,PPLA2
Lula,GA,34.3876,-83.66629,2879,PPL
Lumber City,GA,31.92935,-82.67958,1254,PPL
Lumpkin,GA,32.05099,-84.79909,1093,PPLA2
Luthersville,GA,33.21012,-84.74438,824,PPL
Lyerly,GA,34.40398,-85.40329,529,PPL
Lyons,GA,32.20435,-82.32179,4375,PPLA2
Mableton,GA,33.81872,-84.58243,37115,PPL
Macon,GA,32.84069,-83.6324,91351,PPLA2
Madison,GA,33.59568,-83.46794,4026,PPLA2
Manchester,GA,32.85985,-84.61993,4095,PPL
Marietta,GA,33.9526,-84.54993,59067,PPLA2
Marshallville,GA,32.45626,-83.94019,1333,PPL
Martinez,GA,33.51736,-82.07567,35795,PPL
Maysville,GA,34.25288,-83.56155,1866,PPL
McCaysville,GA,34.98619,-84.37131,1083,PPL
McDonough,GA,33.44734,-84.14686,23417,PPLA2
McIntyre,GA,32.84626,-83.19071,620,PPL
McRae,GA,32.06795,-82.9007,5740,PPLA2
Meigs,GA,31.07241,-84.08907,1030,PPL
Metter,GA,32.39712,-82.06012,4111,PPLA2
Midway,GA,31.80577,-81.43066,2007,PPL
Milan,GA,32.0174,-83.06265,766,PPL
Milledgeville,GA,33.08014,-83.2321,18931,PPLA2
Millen,GA,32.80405,-81.94928,2925,PPLA2
Milner,GA,33.11679,-84.19659,601,PPL
Monroe,GA,33.79484,-83.71323,13641,PPLA2
Montezuma,GA,32.30516,-84.02741,3189,PPL
Montgomery,GA,31.94049,-81.12205,4523,PPL
Monticello,GA,33.30485,-83.68323,2615,PPLA2
Morgan,GA,31.53767,-84.59936,1849,PPLA2
Morrow,GA,33.58317,-84.33937,7338,PPL
Morven,GA,30.94158,-83.49933,532,PPL
Mount Airy,GA,34.51871,-83.50073,1292,PPL
Moultrie,GA,31.17991,-83.78906,14377,PPLA2
Mount Vernon,GA,32.17851,-82.59458,2276,PPLA2
Mount Zion,GA,33.63428,-85.18717,1737,PPL
Mount Zion,GA,33.36125,-83.00765,1514,PPL
Mountain City,GA,34.91815,-83.38544,1061,PPL
Mountain Park,GA,33.84427,-84.12936,11554,PPL
Mountain Park,GA,34.08093,-84.41132,578,PPL
Nahunta,GA,31.20439,-81.98123,1060,PPLA2
Nashville,GA,31.20742,-83.25015,4854,PPLA2
Nelson,GA,34.38204,-84.37103,1347,PPL
Newborn,GA,33.51706,-83.69601,734,PPL
Newnan,GA,33.38067,-84.79966,37291,PPLA2
Newton,GA,31.31296,-84.33574,594,PPLA2
Nicholls,GA,31.51742,-82.63486,3331,PPL
Nicholson,GA,34.114,-83.43155,1718,PPL
Norcross,GA,33.94121,-84.21353,16634,PPL
Norman Park,GA,31.26907,-83.68712,963,PPL
North Decatur,GA,33.79038,-84.30603,16698,PPL
North Druid Hills,GA,33.81677,-84.31326,18947,PPL
North High Shoals,GA,33.82012,-83.506,699,PPL
Oakwood,GA,34.2276,-83.88435,4178,PPL
Oakwood,GA,33.54817,-83.97435,3379,PPL
Ochlocknee,GA,30.97415,-84.05502,679,PPL
Ocilla,GA,31.59447,-83.2513,3387,PPLA2
Odum,GA,31.66604,-82.0279,505,PPL
Oglethorpe,GA,32.29377,-84.06102,1211,PPLA2
Omega,GA,31.34102,-83.5935,1230,PPL
Oxford,GA,33.619,-83.86741,2197,PPL
Palmetto,GA,33.51789,-84.66965,4733,PPL
Panthersville,GA,33.70733,-84.27187,9749,PPL
Pavo,GA,30.95991,-83.73795,617,PPL
Peachtree City,GA,33.39678,-84.59576,35240,PPL
Peachtree Corners,GA,33.9701,-84.22159,40978,PPL
Pearson,GA,31.2977,-82.85237,2112,PPLA2
Pelham,GA,31.12802,-84.15304,3708,PPL
Pembroke,GA,32.13634,-81.62348,2445,PPLA2
Perry,GA,32.45821,-83.73157,15457,PPLA2
Phillipsburg,GA,31.43963,-83.51933,707,PPL
Pine Lake,GA,33.79372,-84.20603,763,PPL
Pine Mountain,GA,33.67594,-84.11492,1210,PPL
Pine Mountain,GA,32.86485,-84.8541,1358,PPL
Pineview,GA,32.11017,-83.501,503,PPL
Plains,GA,32.03405,-84.39269,740,PPL
Pooler,GA,32.11548,-81.24706,23133,PPL
Port Wentworth,GA,32.14909,-81.16317,7637,PPL
Portal,GA,32.53822,-81.93234,617,PPL
Porterdale,GA,33.57511,-83.8938,1483,PPL
Poulan,GA,31.51296,-83.78767,803,PPL
Powder Springs,GA,33.85955,-84.68382,14826,PPL
Preston,GA,32.06599,-84.53742,419,PPLA2
Putney,GA,31.47018,-84.11768,2898,PPL
Quitman,GA,30.78492,-83.55988,3871,PPLA2
Raoul,GA,34.44954,-83.59434,2558,PPL
Ray City,GA,31.07464,-83.19932,1053,PPL
Redan,GA,33.74538,-84.13158,33015,PPL
Reed Creek,GA,34.44594,-82.92487,2604,PPL
Reidsville,GA,32.08686,-82.1179,2616,PPLA2
Remerton,GA,30.84409,-83.31043,1127,PPL
Resaca,GA,34.58036,-84.94328,775,PPL
Reynolds,GA,32.55987,-84.0963,1026,PPL
Riceboro,GA,31.73549,-81.43344,771,PPL
Richland,GA,32.08793,-84.66742,1496,PPL
Richmond Hill,GA,31.93827,-81.30344,11935,PPL
Rincon,GA,32.29603,-81.23539,9843,PPL
Ringgold,GA,34.91591,-85.10912,3700,PPLA2
Riverdale,GA,33.57261,-84.41326,15989,PPL
Roberta,GA,32.72181,-84.01324,996,PPL
Rochelle,GA,31.95101,-83.45627,1120,PPL
Rockmart,GA,34.0026,-85.04161,4300,PPL
Rome,GA,34.25704,-85.16467,36323,PPLA2
Roswell,GA,34.02316,-84.36159,94501,PPL
Rossville,GA,34.98313,-85.28607,3997,PPL
Royston,GA,34.28705,-83.11015,2574,PPL
Russell,GA,33.97872,-83.70017,1203,PPL
Rutledge,GA,33.62595,-83.61239,793,PPL
Rydal,GA,34.33537,-84.71549,4087,PPL
St. Marys,GA,30.73051,-81.54649,17968,PPL
Saint Simon Mills,GA,31.17079,-81.40732,13915,PPL
Saint Simons Island,GA,31.15051,-81.36954,13000,PPL
Sandersville,GA,32.98154,-82.81014,5752,PPLA2
Sandy Springs,GA,33.92427,-84.37854,105330,PPL
Sardis,GA,32.97516,-81.75761,964,PPL
Sardis,GA,32.79652,-84.63881,1229,PPL
Savannah,GA,32.08354,-81.09983,147780,PPLA2
Scottdale,GA,33.78983,-84.26409,10631,PPL
Screven,GA,31.48633,-82.01706,767,PPL
Senoia,GA,33.30234,-84.55382,4073,PPL
Shannon,GA,34.33676,-85.07134,1862,PPL
Shannon,GA,33.40456,-84.46826,1654,PPL
Shellman,GA,31.75628,-84.6152,989,PPL
Skidaway Island,GA,31.93494,-81.04705,8341,PPL
Smithville,GA,31.90045,-84.25185,585,PPL
Smyrna,GA,33.88399,-84.51438,56146,PPL
Snellville,GA,33.85733,-84.01991,19733,PPL
Social Circle,GA,33.65623,-83.71823,4383,PPL
Soperton,GA,32.37712,-82.59236,3087,PPLA2
Sparks,GA,31.16686,-83.43738,2007,PPL
Sparks,GA,33.08793,-82.73764,1760,PPL
Sparta,GA,33.2757,-82.97626,1293,PPLA2
Springfield,GA,32.37241,-81.3115,2889,PPLA2
Statenville,GA,30.70327,-83.02764,1040,PPLA2
Statesboro,GA,32.44879,-81.78317,30721,PPLA2
Statham,GA,33.96511,-83.59655,2624,PPL
Sterling,GA,31.27245,-81.56149,2534,PPL
Stillmore,GA,32.44212,-82.21512,528,PPL
Stockbridge,GA,33.54428,-84.23381,28202,PPL
Stone Mountain,GA,33.80816,-84.1702,6109,PPL
Sugar Hill,GA,34.10649,-84.03352,21747,PPL
Summerville,GA,34.48064,-85.34773,4452,PPLA2
Sunnyside,GA,31.23938,-82.34207,1303,PPL
Sunset Village,GA,32.89791,-84.40381,846,PPL
Suwanee,GA,34.05149,-84.0713,18694,PPL
Swainsboro,GA,32.59739,-82.33374,7471,PPLA2
Sycamore,GA,31.67435,-83.63739,674,PPL
Sylvania,GA,32.75044,-81.63678,2538,PPLA2
Sylvester,GA,31.53092,-83.83693,6049,PPLA2
Talbotton,GA,32.67764,-84.53937,887,PPLA2
Tallapoosa,GA,33.74455,-85.28801,3171,PPL
Talmo,GA,31.31326,-82.56903,572,PPL
Temple,GA,33.73705,-85.03244,4313,PPL
Tennille,GA,32.93599,-82.81153,1773,PPL
Thomasville,GA,30.83658,-83.97878,18742,PPLA2
Thomaston,GA,32.88819,-84.32659,9032,PPLA2
Thomson,GA,33.47069,-82.50457,6689,PPLA2
Thunderbolt,GA,32.03354,-81.04983,2622,PPL
Tifton,GA,31.45046,-83.5085,16725,PPLA2
Tignall,GA,33.86762,-82.74125,513,PPL
Toccoa,GA,34.57732,-83.33239,8283,PPLA2
Trenton,GA,34.87202,-85.50913,2238,PPL
Trion,GA,34.54397,-85.31051,1785,PPL
Tucker,GA,33.85455,-84.21714,27581,PPL
Tunnel Hill,GA,34.84063,-85.04273,877,PPL
Twin City,GA,32.58294,-82.15512,1674,PPL
Ty Ty,GA,31.47185,-83.64684,727,PPL
Tybee Island,GA,32.00022,-80.84567,3102,PPL
Tyrone,GA,33.47123,-84.59715,7194,PPL
Unadilla,GA,32.26155,-83.73657,3666,PPL
Union City,GA,33.58706,-84.54243,20805,PPL
Union Point,GA,33.61568,-83.0746,1709,PPL
Unionville,GA,31.43491,-83.50961,1845,PPL
Uvalda,GA,32.03574,-82.50819,585,PPL
Valdosta,GA,30.83334,-83.28032,55724,PPLA2
Varnell,GA,34.90119,-84.97383,1790,PPL
Vidalia,GA,32.21769,-82.41346,10679,PPL
Vienna,GA,32.09156,-83.79545,3777,PPLA2
Villa Rica,GA,33.73205,-84.91911,14904,PPL
Vinings,GA,33.86483,-84.46437,9734,PPL
Waco,GA,33.70288,-85.18328,518,PPL
Wadley,GA,32.86682,-82.40402,2031,PPL
Waleska,GA,34.31648,-84.55215,802,PPL
Walnut Grove,GA,33.74261,-83.8524,1378,PPL
Walthourville,GA,31.7741,-81.63261,3974,PPL
Warner Robins,GA,32.61574,-83.62664,73490,PPL
Warrenton,GA,33.40708,-82.66208,1812,PPLA2
Washington,GA,33.73679,-82.73931,3981,PPLA2
Watkinsville,GA,33.8629,-83.40877,2872,PPLA2
Waycross,GA,31.21368,-82.3557,14053,PPLA2
Waynesboro,GA,33.08987,-82.01567,5704,PPLA2
Waverly Hall,GA,32.68347,-84.73826,823,PPL
West Point,GA,32.87791,-85.18327,3728,PPL
West Point,GA,32.79347,-83.80741,3238,PPL
White,GA,34.28287,-84.74521,724,PPL
Whitemarsh Island,GA,32.02882,-81.01678,6792,PPL
Whitesburg,GA,33.494,-84.91383,596,PPL
Willacoochee,GA,31.34076,-83.04598,1393,PPL
Wilmington Island,GA,32.00355,-80.97372,15138,PPL
Winder,GA,33.99261,-83.72017,15447,PPLA2
Winterville,GA,33.96706,-83.27821,1172,PPL
Woodbine,GA,30.96396,-81.72416,1285,PPLA2
Woodbury,GA,32.98374,-84.5827,909,PPL
Woodstock,GA,34.10149,-84.51938,29898,PPL
Wrens,GA,33.20765,-82.39179,2051,PPL
Wrightsville,GA,32.72933,-82.71986,3642,PPLA2
Yonah,GA,34.64121,-83.75351,507,PPL
Young Harris,GA,34.93315,-83.84712,1325,PPL
Zebulon,GA,33.10235,-84.3427,1153,PPLA2
Albers,IL,38.54338,-89.61231,1174,PPL
Albion,IL,38.37755,-88.05615,1932,PPLA2
Alhambra,IL,38.88838,-89.73148,661,PPL
Alorton,IL,38.58977,-90.12011,1933,PPL
Altamont,IL,39.06199,-88.74811,2308,PPL
Alton,IL,38.8906,-90.18428,27003,PPL
Anna,IL,37.46033,-89.24703,4321,PPL
Arcola,IL,39.68476,-88.30644,2884,PPL
Argenta,IL,39.98198,-88.82285,912,PPL
Arthur,IL,39.71476,-88.47228,2288,PPL
Ashland,IL,39.88783,-90.00789,1256,PPL
Ashley,IL,38.32949,-89.19091,507,PPL
Ashmore,IL,39.53309,-88.02226,766,PPL
Assumption,IL,39.52032,-89.04897,1116,PPL
Athens,IL,39.96088,-89.72399,1938,PPL
Atwood,IL,39.79948,-88.46228,1191,PPL
Auburn,IL,39.59172,-89.74649,4793,PPL
Ava,IL,37.88838,-89.49482,637,PPL
Aviston,IL,38.60672,-89.60759,2084,PPL
Barry,IL,39.69421,-91.03902,1274,PPL
Bartelso,IL,38.53644,-89.46647,601,PPL
Beckemeyer,IL,38.6056,-89.43592,1016,PPL
Bement,IL,39.92198,-88.57201,1683,PPL
Benld,IL,39.09282,-89.80398,1488,PPL
Benton,IL,37.99672,-88.92007,7041,PPLA2
Bethalto,IL,38.90921,-90.04066,9349,PPL
Bethany,IL,39.64559,-88.73813,1322,PPL
Belleville,IL,38.52005,-89.98399,42034,PPLA2
Blue Mound,IL,39.70115,-89.12314,1111,PPL
Bluffs,IL,39.75199,-90.53513,677,PPL
Bluford,IL,38.33088,-88.72589,673,PPL
Breese,IL,38.6106,-89.52703,4506,PPL
Bridgeport,IL,38.70588,-87.76003,1792,PPL
Brighton,IL,39.03977,-90.14066,2198,PPL
Brooklyn,IL,38.65866,-90.16594,715,PPL
Brookport,IL,37.12367,-88.63033,930,PPL
Brownstown,IL,38.99588,-88.95284,747,PPL
Bunker Hill,IL,39.04282,-89.95177,1716,PPL
Cahokia,IL,38.57088,-90.19011,14402,PPL
Cairo,IL,37.00533,-89.17646,1733,PPLA2
Cambria,IL,37.78144,-89.11925,1265,PPL
Carbondale,IL,37.72727,-89.21675,26399,PPL
Carlinville,IL,39.27977,-89.88177,5665,PPLA2
Carlyle,IL,38.61033,-89.37258,3224,PPLA2
Carmi,IL,38.09088,-88.15865,5119,PPLA2
Carrier Mills,IL,37.68422,-88.63283,1625,PPL
Carrollton,IL,39.30227,-90.40706,2429,PPLA2
Carterville,IL,37.76005,-89.0773,5818,PPL
Casey,IL,39.2992,-87.99253,2709,PPL
Caseyville,IL,38.63672,-90.02566,4045,PPL
Central City,IL,38.54894,-89.12701,1129,PPL
Centralia,IL,38.52505,-89.1334,12655,PPL
Centreville,IL,38.58338,-90.12511,5027,PPL
Cerro Gordo,IL,39.89059,-88.72813,1353,PPL
Chapin,IL,39.88142,-88.77396,575,PPL
Charleston,IL,39.49615,-88.17615,21196,PPLA2
Chatham,IL,39.67616,-89.70454,12351,PPL
Chester,IL,37.91366,-89.82205,8588,PPLA2
Chrisman,IL,39.80365,-87.67364,1272,PPL
Christopher,IL,37.97255,-89.05341,2779,PPL
Cisne,IL,38.51588,-88.43755,659,PPL
Clay City,IL,38.68866,-88.35421,929,PPL
Cobden,IL,37.53144,-89.25342,1139,PPL
Coello,IL,37.99422,-89.0673,553,PPL
Coffeen,IL,39.08921,-89.39064,665,PPL
Collinsville,IL,38.67033,-89.98455,24754,PPL
Columbia,IL,38.44366,-90.20122,10191,PPL
Coulterville,IL,38.18644,-89.60565,913,PPL
Cowden,IL,39.24838,-88.86229,583,PPL
Crainville,IL,37.75199,-89.06785,1381,PPL
Creal Springs,IL,37.61949,-88.83673,532,PPL
Crossville,IL,38.16171,-88.06531,724,PPL
Dahlgren,IL,38.1981,-88.6845,506,PPL
Dalton City,IL,39.71198,-88.80452,527,PPL
De Soto,IL,37.81755,-89.22786,1575,PPL
Decatur,IL,39.84031,-88.9548,73254,PPLA2
Dieterich,IL,39.06199,-88.37977,609,PPL
Divernon,IL,39.56561,-89.65732,1156,PPL
Dongola,IL,37.36116,-89.16591,712,PPL
Du Quoin,IL,38.01144,-89.23619,5949,PPL
Dupo,IL,38.51616,-90.21039,3921,PPL
East Alton,IL,38.88033,-90.11122,6176,PPL
East Saint Louis,IL,38.6245,-90.15094,27006,PPL
Edinburg,IL,39.65727,-89.38953,1051,PPL
Edwardsville,IL,38.81144,-89.95316,24992,PPLA2
Effingham,IL,39.12004,-88.54338,12604,PPLA2
Eldorado,IL,37.81366,-88.4381,4064,PPL
Elizabethtown,IL,37.44588,-88.30504,287,PPLA2
Elkville,IL,37.91005,-89.23592,904,PPL
Elsah,IL,38.95616,-90.35984,632,PPL
Energy,IL,37.77394,-89.02646,1145,PPL
Enfield,IL,38.09949,-88.33754,580,PPL
Equality,IL,37.73394,-88.34338,556,PPL
Evansville,IL,38.09033,-89.93844,675,PPL
Fairfield,IL,38.37894,-88.35977,5040,PPLA2
Fairmont City,IL,38.64977,-90.09316,2502,PPL
Fairview Heights,IL,38.58894,-89.99038,16827,PPL
Farina,IL,38.83421,-88.77228,512,PPL
Farmersville,IL,39.44339,-89.65176,703,PPL
Findlay,IL,39.52254,-88.75368,653,PPL
Flora,IL,38.66894,-88.4856,4944,PPL
Forsyth,IL,39.93254,-88.95119,3584,PPL
Franklin,IL,39.62033,-90.044,597,PPL
Freeburg,IL,38.42755,-89.91371,4241,PPL
Galatia,IL,37.8406,-88.60922,917,PPL
Georgetown,IL,39.97531,-87.63585,3363,PPL
Germantown,IL,38.55366,-89.53842,1285,PPL
Gillespie,IL,39.12977,-89.81954,3176,PPL
Glen Carbon,IL,38.74838,-89.98316,12966,PPL
Girard,IL,39.44644,-89.78093,2027,PPL
Godfrey,IL,38.9556,-90.18678,17759,PPL
Golconda,IL,37.36727,-88.48643,629,PPLA2
Goreville,IL,37.5545,-88.97229,1062,PPL
Grafton,IL,38.97005,-90.4315,653,PPL
Grand Tower,IL,37.62644,-89.49787,588,PPL
Grandview,IL,39.81644,-89.61871,1427,PPL
Granite City,IL,38.70144,-90.14872,29054,PPL
Grayville,IL,38.25755,-87.99364,1626,PPL
Greenfield,IL,39.34366,-90.21261,1020,PPL
Greenup,IL,39.24782,-88.16337,1495,PPL
Greenville,IL,38.89227,-89.41314,6666,PPLA2
Griggsville,IL,39.70894,-90.72457,1176,PPL
Hamel,IL,38.88894,-89.84538,806,PPL
Hardin,IL,39.15671,-90.6179,934,PPLA2
Harrisburg,IL,37.73838,-88.54061,8891,PPLA2
Harrison,IL,37.79672,-89.33703,970,PPL
Harristown,IL,39.85393,-89.08397,1332,PPL
Hartford,IL,38.83338,-90.09594,1382,PPL
Herrin,IL,37.80311,-89.02757,12910,PPL
Highland,IL,38.73949,-89.6712,9848,PPL
Hillsboro,IL,39.16128,-89.4954,5726,PPLA2
Holiday Shores,IL,38.92199,-89.94066,2882,PPL
Hoyleton,IL,38.44172,-89.27425,510,PPL
Hurst,IL,37.83311,-89.14286,797,PPL
Hutsonville,IL,39.10949,-87.65641,545,PPL
Illiopolis,IL,39.85365,-89.24203,880,PPL
Ina,IL,38.15116,-88.90396,2360,PPL
Irvington,IL,38.43922,-89.16285,636,PPL
Jacksonville,IL,39.73394,-90.22901,19103,PPLA2
Jerome,IL,39.76755,-89.68066,1651,PPL
Jerseyville,IL,39.12005,-90.32845,8469,PPLA2
Johnston City,IL,37.82061,-88.92757,3500,PPL
Jonesboro,IL,37.45172,-89.26814,1768,PPLA2
Kansas,IL,39.55281,-87.93948,744,PPL
Kincaid,IL,39.58866,-89.41454,1437,PPL
Kinmundy,IL,38.77338,-88.84672,772,PPL
Lawrenceville,IL,38.72921,-87.68169,4427,PPLA2
Lebanon,IL,38.60394,-89.80732,4467,PPL
Leland Grove,IL,39.777,-89.67927,1523,PPL
Liberty,IL,39.87949,-91.10792,513,PPL
Litchfield,IL,39.17533,-89.65426,6897,PPL
Livingston,IL,38.96755,-89.76398,827,PPL
Loami,IL,39.67561,-89.84677,754,PPL
Long Creek,IL,39.81198,-88.84757,1302,PPL
Louisville,IL,38.77227,-88.50255,1116,PPLA2
Lovington,IL,39.71559,-88.63256,1108,PPL
Macon,IL,39.71282,-88.99702,1131,PPL
Madison,IL,38.68255,-90.15705,3868,PPL
Makanda,IL,37.61755,-89.20897,545,PPL
Marine,IL,38.78644,-89.77759,935,PPL
Marion,IL,37.73061,-88.93313,17803,PPLA2
Marissa,IL,38.25005,-89.7501,1856,PPL
Marshall,IL,39.39143,-87.69364,3880,PPLA2
Martinsville,IL,39.33559,-87.88198,1135,PPL
Maryville,IL,38.72366,-89.95593,7902,PPL
Mascoutah,IL,38.49033,-89.79315,7975,PPL
Mattoon,IL,39.48309,-88.37283,18113,PPL
McLeansboro,IL,38.09338,-88.53561,2792,PPLA2
Mechanicsburg,IL,39.80949,-89.39731,629,PPL
Meredosia,IL,39.83116,-90.55957,1018,PPL
Metropolis,IL,37.15117,-88.732,6334,PPLA2
Millstadt,IL,38.46144,-90.09178,3896,PPL
Mitchell,IL,38.76199,-90.08538,1356,PPL
Morrisonville,IL,39.42005,-89.45565,1028,PPL
Mound City,IL,37.08533,-89.16257,544,PPLA2
Mounds,IL,37.11422,-89.19785,745,PPL
Mount Carmel,IL,38.41088,-87.76142,7027,PPLA2
Mount Olive,IL,39.07227,-89.72731,2013,PPL
Mount Sterling,IL,39.98727,-90.76346,1968,PPLA2
Mount Vernon,IL,38.31727,-88.90312,15087,PPLA2
Mount Zion,IL,39.77143,-88.87424,5862,PPL
Moweaqua,IL,39.62476,-89.01897,1751,PPL
Mulberry Grove,IL,38.92505,-89.26896,598,PPL
Murphysboro,IL,37.7645,-89.33509,7768,PPLA2
Murrayville,IL,39.5856,-90.25206,572,PPL
Nashville,IL,38.34366,-89.38064,3132,PPLA2
Neoga,IL,39.31948,-88.45283,1613,PPL
New Athens,IL,38.32644,-89.87705,1951,PPL
New Baden,IL,38.53505,-89.70065,3313,PPL
New Berlin,IL,39.72533,-89.91066,1350,PPL
Newman,IL,39.79865,-87.98587,854,PPL
Niantic,IL,39.85393,-89.16619,673,PPL
Noble,IL,38.69755,-88.22365,668,PPL
Nokomis,IL,39.30116,-89.28508,2185,PPL
Norris City,IL,37.98116,-88.32921,1247,PPL
O'Fallon,IL,38.59227,-89.91121,29002,PPL
Oakland,IL,39.65392,-88.02615,881,PPL
Oblong,IL,39.00199,-87.90892,1427,PPL
Odin,IL,38.61727,-89.05229,1040,PPL
Okawville,IL,38.43422,-89.55037,1399,PPL
Olive Branch,IL,37.16866,-89.35175,650,PPL
Olney,IL,38.73088,-88.08532,9005,PPLA2
Oreana,IL,39.93865,-88.86563,837,PPL
Palestine,IL,39.00365,-87.6128,1331,PPL
Palmyra,IL,39.43477,-89.99594,674,PPL
Pana,IL,39.38893,-89.08008,5607,PPL
Paris,IL,39.61115,-87.69614,8432,PPLA2
Patoka,IL,38.75533,-89.09534,566,PPL
Pawnee,IL,39.59172,-89.58037,2713,PPL
Payson,IL,39.81699,-91.24237,1011,PPL
Percy,IL,38.01644,-89.61871,930,PPL
Pesotum,IL,39.91475,-88.27338,544,PPL
Pierron,IL,38.78005,-89.59814,565,PPL
Pinckneyville,IL,38.08033,-89.38203,5385,PPLA2
Pittsburg,IL,37.77699,-88.84951,559,PPL
Pittsfield,IL,39.60783,-90.80513,4485,PPLA2
Pleasant Hill,IL,39.44338,-90.87235,941,PPL
Pleasant Plains,IL,39.87283,-89.92122,804,PPL
Pocahontas,IL,38.82782,-89.54008,745,PPL
Pontoon Beach,IL,38.73172,-90.08038,5637,PPL
Prairie du Rocher,IL,38.08311,-90.09595,574,PPL
Quincy,IL,39.9356,-91.40987,40780,PPLA2
Ramsey,IL,39.14449,-89.10868,1026,PPL
Raymond,IL,39.31949,-89.57204,977,PPL
Red Bud,IL,38.21172,-89.99427,3586,PPL
Ridge Farm,IL,39.89559,-87.65197,853,PPL
Ridgway,IL,37.79921,-88.26115,816,PPL
Riverton,IL,39.84422,-89.53954,3462,PPL
Robinson,IL,39.00532,-87.73919,7631,PPLA2
Rochester,IL,39.74949,-89.53176,3779,PPL
Roodhouse,IL,39.48394,-90.37151,1730,PPL
Rosewood Heights,IL,38.88783,-90.08483,4038,PPL
Rosiclare,IL,37.42366,-88.34615,1082,PPL
Roxana,IL,38.84838,-90.07622,1483,PPL
Royalton,IL,37.87699,-89.11452,1138,PPL
Saint Elmo,IL,39.02727,-88.84811,1426,PPL
Saint Francisville,IL,38.59116,-87.64669,697,PPL
Saint Jacob,IL,38.71394,-89.76815,1098,PPL
Saint Libory,IL,38.36255,-89.70982,615,PPL
Salem,IL,38.62699,-88.94562,7287,PPLA2
Sandoval,IL,38.6156,-89.11423,1230,PPL
Schram City,IL,39.16421,-89.4637,570,PPL
Sesser,IL,38.09172,-89.05035,1906,PPL
Shawneetown,IL,37.7131,-88.1867,1164,PPLA2
Shelbyville,IL,39.40643,-88.79007,4599,PPLA2
Sherman,IL,39.89366,-89.60482,4605,PPL
Shiloh,IL,38.56144,-89.89732,12961,PPL
Shipman,IL,39.11755,-90.04427,603,PPL
Sidell,IL,39.90976,-87.82114,592,PPL
Smithton,IL,38.40866,-89.99205,3719,PPL
South Jacksonville,IL,39.70866,-90.22818,3261,PPL
South Roxana,IL,38.82949,-90.06288,1997,PPL
Southern View,IL,39.75727,-89.65371,1635,PPL
Spaulding,IL,39.86616,-89.54038,869,PPL
Sparta,IL,38.12311,-89.70177,4419,PPL
Springfield,IL,39.80172,-89.64371,114394,PPLA
Staunton,IL,39.01227,-89.79121,5018,PPL
Steeleville,IL,38.00727,-89.65843,1993,PPL
Stewardson,IL,39.2631,-88.62978,716,PPL
Stonington,IL,39.64004,-89.19286,890,PPL
Sullivan,IL,39.59948,-88.60784,4494,PPLA2
Sumner,IL,38.71699,-87.86142,3183,PPL
Swansea,IL,38.53394,-89.98899,13543,PPL
Tamaroa,IL,38.13783,-89.23008,613,PPL
Taylor Springs,IL,39.13088,-89.49203,673,PPL
Taylorville,IL,39.54894,-89.29453,10873,PPLA2
Teutopolis,IL,39.1331,-88.47199,1586,PPL
Thayer,IL,39.53811,-89.76315,681,PPL
Thompsonville,IL,37.91755,-88.76228,536,PPL
Tilden,IL,38.21199,-89.6826,893,PPL
Toledo,IL,39.27365,-88.24365,1221,PPLA2
Tolono,IL,39.98614,-88.25894,3479,PPL
Tower Hill,IL,39.38782,-88.96063,590,PPL
Trenton,IL,38.6056,-89.68204,2667,PPL
Troy,IL,38.72921,-89.88315,10036,PPL
Tuscola,IL,39.7992,-88.2831,4443,PPLA2
Upper Alton,IL,38.91144,-90.15066,29251,PPL
Valier,IL,38.01533,-89.04257,659,PPL
Valmeyer,IL,38.30561,-90.27651,1263,PPL
Vandalia,IL,38.9606,-89.09368,7112,PPLA2
Venice,IL,38.67227,-90.16983,1915,PPL
Vienna,IL,37.41533,-88.89784,1647,PPLA2
Villa Grove,IL,39.86281,-88.16227,2495,PPL
Virden,IL,39.50089,-89.76787,3407,PPL
Virginia,IL,39.95116,-90.21234,1516,PPLA2
Wamac,IL,38.50894,-89.14063,1143,PPL
Warrensburg,IL,39.93282,-89.06203,1163,PPL
Washington Park,IL,38.63505,-90.09289,3990,PPL
Waterloo,IL,38.33589,-90.14983,10236,PPLA2
Watson,IL,39.02532,-88.56977,745,PPL
Wayne City,IL,38.34533,-88.58783,1012,PPL
Waverly,IL,39.59172,-89.95288,1268,PPL
West City,IL,37.99394,-88.93507,654,PPL
West Frankfort,IL,37.89783,-88.93146,8067,PPL
West Salem,IL,38.52088,-88.00476,872,PPL
Westfield,IL,39.45642,-87.99615,580,PPL
White Hall,IL,39.43699,-90.40318,2410,PPL
Williamsville,IL,39.95422,-89.54871,1496,PPL
Willisville,IL,37.98394,-89.58954,608,PPL
Wilsonville,IL,39.07088,-89.85621,566,PPL
Winchester,IL,39.62977,-90.45624,1513,PPLA2
Windsor,IL,39.44087,-88.59478,1162,PPL
Witt,IL,39.25644,-89.34814,872,PPL
Wood River,IL,38.86116,-90.09761,10294,PPL
Woodlawn,IL,38.33005,-89.03257,693,PPL
Woodson,IL,39.62894,-90.21901,512,PPL
Worden,IL,38.93144,-89.83899,1028,PPL
Zeigler,IL,37.89949,-89.05202,1765,PPL
Advance,IN,39.99588,-86.62,511,PPL
Austin,IN,38.75839,-85.80803,4295,PPL
Avoca,IN,38.91199,-86.54777,583,PPL
Avon,IN,39.76282,-86.39972,16451,PPL
Bainbridge,IN,39.76116,-86.81195,742,PPL
Bargersville,IN,39.52088,-86.16777,6846,PPL
Batesville,IN,39.30005,-85.22218,6611,PPL
Bedford,IN,38.86116,-86.48721,13347,PPLA2
Beech Grove,IN,39.72199,-86.08998,14548,PPL
Bicknell,IN,38.77421,-87.30779,2892,PPL
Bloomfield,IN,39.02699,-86.93751,2336,PPLA2
Bloomington,IN,39.16533,-86.52639,84067,PPLA2
Boonville,IN,38.04921,-87.27417,6180,PPLA2
Borden,IN,38.46673,-85.9458,891,PPL
Brazil,IN,39.52365,-87.12502,8109,PPLA2
Bright,IN,39.21839,-84.85606,5693,PPL
Broad Ripple,IN,39.86671,-86.14165,17041,PPL
Brooklyn,IN,39.53921,-86.36916,1601,PPL
Brookville,IN,39.42311,-85.01274,2566,PPLA2
Brownsburg,IN,39.84338,-86.39777,24996,PPL
Brownstown,IN,38.87894,-86.04192,2952,PPLA2
Cambridge City,IN,39.81255,-85.17163,1784,PPL
Campbellsburg,IN,38.65144,-86.26109,578,PPL
Cannelton,IN,37.91144,-86.74443,1517,PPL
Carlisle,IN,38.96838,-87.40557,692,PPL
Carmel,IN,39.97837,-86.11804,88713,PPL
Carthage,IN,39.73838,-85.57192,890,PPL
Cayuga,IN,39.94865,-87.45974,1118,PPL
Centerville,IN,39.81782,-84.99635,2576,PPL
Chandler,IN,38.04171,-87.36806,3385,PPL
